Time,X,Y,Z,Yaw,Roll,Pitch,Dx,Dy,Dz,P,Q,R,Motor1,Motor2,Motor3,Motor4,X_r,Y_r,Z_r,Yaw_r,Pitch_r,Roll_r,Dx_r,Dy_r,Dz_r,P_r,Q_r,R_r,Flag_Pitch_Roll,Ac_Dx,Ac_Dy,Ac_Dz,Gyro P,Gyro Q,Gyro R,Sonar Altitud,Pressure Altitud,Bat_V,Bat_Percentage,Acceleracion X,Acceleracion Y,Acceleracion Z,Acceleracion P,Acceleracion Q,Acceleracion R
0,0,0,-0.04600000009,-5.859605494e-07,-1.965232968e-06,-2.155978336e-06,0,0,0,-0.0003930466191,-0.0004311956582,-0.0001171921103,342.9324951,-342.9584045,342.897583,-342.9623718,0,0,0,0,0,0,0,0,0,0,0,0,1,0.03380773589,-0.1119245887,-9.49283886,-0.009892500006,-0.007933972403,0.001084620482,0.4399999976,101270.3984,3.5,70,0,0,0,-0.07860932499,-0.0862391293,-0.02343842201
0.004999999888,0,0,-0.04600000009,-5.3077639e-07,2.704249709e-06,2.966718739e-06,0,0,0.04774495587,0.0009338965756,0.001024539466,1.103885006e-05,342.8984375,-342.9407654,342.9804993,-342.9311523,0,0,0,0,0,0,0,0,0,0,0,0,1,0.2235153019,0.06337512285,-13.63542938,-0.008567401208,-0.006468862295,0.002486960264,0.4399999976,101270.3984,3.5,70,0,0,9.548991203,0.2653886378,0.2911470234,0.02564619109
0.009999999776,7.0822892e-10,-6.455717627e-10,-0.04576127604,-7.171090033e-08,-4.059651474e-06,-4.669205737e-06,0,0,0.08799500763,-0.001352780499,-0.001527184737,9.181722999e-05,343.0153503,-342.914093,342.894928,-342.9264832,0,0,0,0,0,0,0,0,0,0,0,0,1,-0.1170461848,-0.2513481379,-14.08030415,-0.01085089985,-0.009037019685,-2.343850429e-05,0.4399999976,101270.3984,3.5,70,0,0,8.050010681,-0.4573354125,-0.5103448629,0.01615567505
0.01499999966,-1.346104894e-09,1.140573858e-09,-0.04532130063,-1.382231062e-06,9.645309547e-07,1.141576831e-06,0,0,0.1087996438,0.001004835241,0.001162157627,-0.0002620993182,342.8422241,-342.9926758,342.9317322,-342.9842834,0,0,0,0,0,0,0,0,0,0,0,0,1,0.2523617446,0.09006716311,-13.59772968,-0.008496561088,-0.006330357864,0.002706894884,0.4399999976,101270.3984,3.5,70,0,0,4.160927296,0.4715231359,0.5378684998,-0.07078330964
0.01999999955,-7.250899325e-10,6.158699106e-10,-0.04477730021,5.927828397e-07,6.776180271e-06,7.103012649e-06,0,0,0.1059579477,0.001162329456,0.001192287542,0.0003950016107,342.9629517,-342.8695068,343.0635376,-342.8548584,0,0,0,0,0,0,0,0,0,0,0,0,1,0.2280429602,0.06750300527,-13.62954521,-0.008339285851,-0.006300034001,0.002521352144,0.4399999976,101270.3906,3.5,70,0,0,-0.5683392286,0.03149884194,0.006025983021,0.1314201802
0.02500000037,3.038015395e-09,-2.974078761e-09,-0.04424751177,5.627850442e-06,1.347935722e-06,1.249438355e-06,0,0,0.08882658184,-0.001085655997,-0.001170707983,0.001007021521,343.1792908,-342.7364807,343.0864563,-342.7486572,0,0,0,0,0,0,0,0,0,0,0,0,1,-0.0585828647,-0.1972852796,-14.00391293,-0.01058414672,-0.008678247221,0.0004187921004,0.4399999976,101270.3906,3.5,70,0,0,-3.426273108,-0.4495970905,-0.4725990891,0.1224039793
0.02999999933,3.592935505e-09,-3.572738105e-09,-0.04380337894,1.942759354e-06,-3.894813744e-06,-3.709885732e-06,0,0,0.06745431572,-0.001048548962,-0.0009918658761,-0.0007370169042,342.8421631,-343.0685425,342.7553101,-343.0848694,0,0,0,0,0,0,0,0,0,0,0,0,1,-0.01297002845,-0.1550596952,-13.94429302,-0.01054709125,-0.008498253301,0.0007323612226,0.4399999976,101270.3828,3.5,70,0,0,-4.274453163,0.007421406917,0.0357684195,-0.3488076925
0.03500000015,2.34169395e-09,-2.25913066e-09,-0.04346610606,-4.332014214e-07,1.167243045e-05,1.353664084e-05,0,0,0.0457159467,0.00311344699,0.003449307289,-0.0004751787055,342.7090759,-343.0436401,342.9850159,-343.0131226,0,0,0,0,0,0,0,0,0,0,0,0,1,0.5445041656,0.360003233,-13.21612644,-0.006390880328,-0.004028479103,0.004791550338,0.4399999976,101270.375,3.5,70,0,0,-4.347673893,0.8323991895,0.8882346749,0.0523676388
0.03999999911,5.435894401e-09,-4.92721286e-09,-0.0432375297,1.330166197e-05,1.701253495e-05,1.887672443e-05,0,0,0.02371812798,0.001067983801,0.001068048645,0.002746960148,343.4206848,-342.4134216,343.5168457,-342.3999023,0,0,0,0,0,0,0,0,0,0,0,0,1,0.215787217,0.05618441105,-13.64554691,-0.008433500305,-0.006425072905,0.0024053331,0.4399999976,101270.3672,3.5,70,0,0,-4.399563789,-0.4090926647,-0.4762517214,0.6444277763
0.04500000179,7.674524127e-09,-6.944710584e-09,-0.0431189388,2.041459084e-05,7.191021723e-06,9.266759662e-06,0,0,0.001692320569,-0.001964329509,-0.001921968767,0.001422618516,343.3006592,-342.6393127,343.1419678,-342.6689148,0,0,0,0,0,0,0,0,0,0,0,0,1,-0.1098690107,-0.2445276827,-14.07082558,-0.0114615988,-0.00943434611,2.729328662e-05,0.4399999976,101270.3594,3.5,70,0,0,-4.405161381,-0.6064626575,-0.5980035067,-0.264868319
0.05000000075,7.752936959e-09,-7.005556579e-09,-0.04311047494,6.272301107e-06,-9.517061699e-06,-7.269454727e-06,0,0,-0.01964295469,-0.003341590287,-0.003307263367,-0.002828434343,342.5437317,-343.4480896,342.2634583,-343.4956055,0,0,0,0,0,0,0,0,0,0,0,0,1,-0.2694946229,-0.3919587135,-14.27929878,-0.01283694524,-0.01082856208,-0.001319863019,0.4399999976,101270.3438,3.5,70,0,0,-4.267055035,-0.2754521668,-0.2770589292,-0.8502105474
0.0549999997,8.466910728e-09,-7.940267999e-09,-0.04320869222,-7.870627087e-06,-1.904709643e-05,-1.72125965e-05,0,0,-0.04081372544,-0.001906027668,-0.001988601405,-0.002828604542,342.4789124,-343.4693604,342.3102112,-343.4923706,0,0,0,0,0,0,0,0,0,0,0,0,1,-0.1320607364,-0.2650883198,-14.09983635,-0.0114033781,-0.009501407854,-0.0003935145214,0.4399999976,101270.3359,3.5,70,0,0,-4.234154224,0.287112534,0.2637324035,-3.40398401e-05
0.05999999866,1.197943078e-08,-1.182720943e-08,-0.0434127599,-1.383217932e-05,-2.011914148e-05,-1.997672553e-05,0,0,-0.06301672757,-0.0002144296013,-0.0005528032198,-0.00119232107,342.7208862,-343.1782227,342.6832886,-343.168457,0,0,0,0,0,0,0,0,0,0,0,0,1,-0.005908723921,-0.1487343162,-13.93515587,-0.009714131244,-0.008056363091,0.0007070255815,0.4399999976,101270.3203,3.5,70,0,0,-4.440600395,0.3383196294,0.2871596217,0.3272566795
0.06499999762,1.827368301e-08,-1.81665083e-08,-0.04372784123,-2.241007678e-05,-3.183156514e-05,-3.551193367e-05,0,0,-0.08633896708,-0.00234251935,-0.00310700736,-0.001715641818,342.7146301,-343.2765808,342.4795532,-343.2800903,0,0,0,0,0,0,0,0,0,0,0,0,1,-0.3763602376,-0.4911782742,-14.41912556,-0.01183926314,-0.01062701643,-0.001860484015,0.4399999976,101270.3047,3.5,70,0,0,-4.664447784,-0.4256179631,-0.5108408332,-0.1046641469
0.0700000003,3.360369405e-08,-3.190837461e-08,-0.04415953904,-3.147180178e-05,-2.336487341e-05,-2.876715916e-05,0,0,-0.1100151837,0.001693274011,0.0013490126,-0.001812302158,342.5137634,-343.3214111,342.6321716,-343.2835388,0,0,0,0,0,0,0,0,0,0,0,0,1,0.1927941293,0.03472646326,-13.67568684,-0.007809079252,-0.006142299622,0.002420837525,0.4399999976,101270.2891,3.5,70,0,0,-4.73524332,0.807158649,0.8912039995,-0.01933206804
0.07500000298,4.942741327e-08,-4.476132887e-08,-0.04470961541,-2.985833817e-05,-1.011315726e-05,-1.762410102e-05,0,0,-0.1335621327,0.002650352661,0.002228604164,0.0003227448324,342.8800659,-342.9220581,343.0803223,-342.8684082,0,0,0,0,0,0,0,0,0,0,0,0,1,0.2480686754,0.08562997729,-13.6035881,-0.00685333088,-0.005257043522,0.002936046571,0.4399999976,101270.2734,3.5,70,0,0,-4.709389687,0.1914157271,0.1759183109,0.4270094037
0.07999999821,6.119677209e-08,-5.151535376e-08,-0.04537742585,-2.012633377e-05,-3.941859177e-06,-1.288375552e-05,0,0,-0.1570097655,0.001234294032,0.0009480494191,0.001946410513,343.2507019,-342.5948181,343.3398438,-342.5655212,0,0,0,0,0,0,0,0,0,0,0,0,1,0.1037262082,-0.04765061662,-13.79209614,-0.008267421275,-0.006545844954,0.001983977854,0.4399999976,101270.25,3.5,70,0,0,-4.689526558,-0.2832117379,-0.2561109662,0.3247331381
0.08500000089,7.131108504e-08,-5.461010844e-08,-0.0461624749,-1.532218812e-05,3.689330697e-06,-4.546629498e-06,0,0,-0.1798568517,0.001526250388,0.001667421311,0.0009608357213,343.0450439,-342.7735901,343.1765442,-342.7556763,0,0,0,0,0,0,0,0,0,0,0,0,1,0.23691459,0.07558337599,-13.61804962,-0.007975870743,-0.005821840372,0.002955135191,0.4399999976,101270.2344,3.5,70,0,0,-4.569417,0.05839127302,0.143874377,-0.1971149594
0.09000000358,7.539984637e-08,-5.129241387e-08,-0.04706175625,-1.473117754e-05,8.240665466e-07,-6.719081284e-06,0,0,-0.2017685026,-0.0005730523262,-0.0004344899498,0.000118203694,342.973053,-342.9190369,342.9286499,-342.9301147,0,0,0,0,0,0,0,0,0,0,0,0,1,-0.02061490528,-0.1623148769,-13.95441818,-0.01007225551,-0.007937287912,0.0009385439917,0.4399999976,101270.2109,3.5,70,0,0,-4.382329941,-0.419860512,-0.4203822613,-0.1685264111
0.09499999881,8.217835301e-08,-5.046116058e-08,-0.04807059839,-1.383938979e-05,-2.641444098e-06,-8.681622603e-06,0,0,-0.2233357728,-0.000693100912,-0.0003925080819,0.0001783578191,342.987793,-342.9032898,342.9379578,-342.921814,0,0,0,0,0,0,0,0,0,0,0,0,1,0.01504138857,-0.1292645931,-13.90779018,-0.01019213721,-0.007895035669,0.001147599891,0.4399999976,101270.1875,3.5,70,0,0,-4.313454151,-0.02400971763,0.008396374062,0.01203082502
0.1000000015,9.187289862e-08,-5.341093967e-08,-0.04918728024,-1.616659756e-05,-2.240010872e-06,-6.840794413e-06,0,0,-0.2450090647,8.028263255e-05,0.0003681668604,-0.0004654405639,342.8315735,-343.0326843,342.8462219,-343.0403748,0,0,0,0,0,0,0,0,0,0,0,0,1,0.1057718992,-0.04545963928,-13.78928661,-0.009419828653,-0.00712946197,0.001813856768,0.4399999976,101270.1641,3.5,70,0,0,-4.334658623,0.1546767056,0.1521349847,-0.1287596822
0.1049999967,1.002531391e-07,-5.615519072e-08,-0.05041232333,-1.703388443e-05,-3.697925877e-06,-7.664049917e-06,0,0,-0.2670291066,-0.0002915842342,-0.0001646508026,-0.0001734576072,342.9050903,-342.9778442,342.882782,-342.985199,0,0,0,0,0,0,0,0,0,0,0,0,1,0.02857295237,-0.1168345734,-13.89014149,-0.009791178629,-0.007665710989,0.001234987401,0.4399999976,101270.1328,3.5,70,0,0,-4.404008389,-0.0743733719,-0.1065635383,0.05839659274
0.1099999994,1.104856793e-07,-6.109263495e-08,-0.05174747109,-1.023905861e-05,1.184825669e-05,1.00307243e-05,0,0,-0.2893660069,0.003109246958,0.003538949881,0.001358978334,343.0507813,-342.699707,343.3287354,-342.6716309,0,0,0,0,0,0,0,0,0,0,0,0,1,0.5174803734,0.3349525034,-13.25149536,-0.006395074539,-0.003938259091,0.004880058113,0.4399999976,101270.1094,3.5,70,0,0,-4.467380047,0.6801662445,0.7407201529,0.3064871728
0.1150000021,9.597309969e-08,-4.39500738e-08,-0.05319429934,-3.203561846e-06,4.266038104e-06,2.095108357e-06,0,0,-0.3116274476,-0.00151645788,-0.001587106613,0.001407118281,343.2671814,-342.6629028,343.1395874,-342.6812134,0,0,0,0,0,0,0,0,0,0,0,0,1,-0.154009372,-0.2855559289,-14.12863636,-0.01101434976,-0.009097327478,-7.012354763e-05,0.4399999976,101270.0781,3.5,70,0,0,-4.452288151,-0.9251410365,-1.025211215,0.009627989493
0.1199999973,9.27086532e-08,-3.730298914e-08,-0.05475243554,-3.675075277e-06,2.699438028e-06,2.382467983e-06,0,0,-0.3335362673,-0.0003133198479,5.747153409e-05,-9.430292994e-05,342.923584,-342.9493713,342.9112854,-342.9666138,0,0,0,0,0,0,0,0,0,0,0,0,1,0.1257153153,-0.026862951,-13.76313019,-0.009812884033,-0.007442158181,0.001918595983,0.4399999976,101270.0469,3.5,70,0,0,-4.381763935,0.2406276017,0.3289156258,-0.3002842367
0.125,8.873547586e-08,-3.280117156e-08,-0.05642011762,-1.963194109e-06,1.867658102e-05,2.101046266e-05,0,0,-0.3550258577,0.003195427824,0.003725599963,0.0003423661692,342.8554382,-342.8860474,343.1477661,-342.8616028,0,0,0,0,0,0,0,0,0,0,0,0,1,0.5749692917,0.3881711364,-13.17634106,-0.006309013348,-0.003750406904,0.005155338906,0.4399999976,101270.0156,3.5,70,0,0,-4.29791832,0.7017495036,0.73362571,0.08733382076
0.1299999952,5.143925463e-08,3.522480085e-10,-0.05819524825,1.156575036e-05,1.906641046e-05,2.207286707e-05,0,0,-0.3766341507,7.790911332e-05,0.0002125314059,0.00270578498,343.4501343,-342.4129944,343.4695129,-342.4182434,0,0,0,0,0,0,0,0,0,0,0,0,1,0.1184651107,-0.03367432952,-13.77264881,-0.009422198869,-0.007286099717,0.001787139568,0.4399999976,101269.9844,3.5,70,0,0,-4.321658611,-0.6235037446,-0.7026137114,0.4726837277
0.1350000054,9.871865103e-09,3.625707379e-08,-0.06007841974,1.779792001e-05,8.920666005e-06,1.315431291e-05,0,0,-0.3983259499,-0.002029176336,-0.001783687156,0.001246468164,343.2641296,-342.6702576,343.1081543,-342.7083435,0,0,0,0,0,0,0,0,0,0,0,0,1,-0.07200473547,-0.2094568163,-14.02132893,-0.01152635552,-0.009295173921,0.0003596468596,0.4399999976,101269.9531,3.5,70,0,0,-4.338359833,-0.4214170873,-0.3992436826,-0.2918633521
0.1400000006,-1.632697355e-08,5.402327119e-08,-0.06207004935,1.03258335e-05,1.376775617e-05,2.058673272e-05,0,0,-0.4194124341,0.0009694377077,0.00148647069,-0.001494430471,342.6071167,-343.2121277,342.7127686,-343.2188721,0,0,0,0,0,0,0,0,0,0,0,0,1,0.3597301841,0.1894989014,-13.45736408,-0.008531909436,-0.00600395631,0.003386514727,0.4399999976,101269.9141,3.5,70,0,0,-4.2172966,0.5997228026,0.6540315747,-0.5481797457
0.1449999958,-5.949893023e-08,8.289466535e-08,-0.06416711211,1.288677959e-05,6.953317552e-06,1.375095417e-05,0,0,-0.4404738843,-0.001362898387,-0.00136714871,0.0005122080911,343.0980225,-342.8217468,342.988678,-342.8424072,0,0,0,0,0,0,0,0,0,0,0,0,1,-0.04372387752,-0.1834389865,-13.98443413,-0.01086100377,-0.008875953034,0.0003256274213,0.4399999976,101269.8828,3.5,70,0,0,-4.21228981,-0.4664672017,-0.5707238913,0.4013276994
0.150000006,-8.978381061e-08,9.820804792e-08,-0.06636948138,1.60505333e-05,-9.267660062e-08,6.857181688e-06,0,0,-0.4621586502,-0.001409207587,-0.001378750079,0.0006327604642,343.1256714,-342.7960815,343.0108948,-342.8182373,0,0,0,0,0,0,0,0,0,0,0,0,1,-0.01653771289,-0.1582409441,-13.94887066,-0.01090724859,-0.008887629025,0.0006146266242,0.4399999976,101269.8438,3.5,70,0,0,-4.336953163,-0.009261840023,-0.002320273779,0.02411047369
0.1550000012,-1.056293399e-07,9.799363454e-08,-0.06868027151,6.096823199e-06,-8.481008535e-07,5.980739388e-06,0,0,-0.4840265214,-0.0001510712027,-0.0001752883109,-0.00199074205,342.5689697,-343.3112183,342.5567322,-343.3139648,0,0,0,0,0,0,0,0,0,0,0,0,1,0.1163608059,-0.03552328795,-13.77531433,-0.009650860913,-0.007676417008,0.001563601312,0.4399999976,101269.8047,3.5,70,0,0,-4.373574257,0.2516272664,0.2406923622,-0.5247005224
0.1599999964,-1.201035076e-07,9.59410329e-08,-0.07110040635,4.451224413e-06,-4.088247806e-06,1.456158316e-06,0,0,-0.5060393214,-0.0006480274023,-0.0009049159708,-0.0003291205503,342.9095459,-342.9969482,342.8463135,-342.9980469,0,0,0,0,0,0,0,0,0,0,0,0,1,-0.0034050697,-0.1462836266,-13.9318018,-0.01014712639,-0.008410743438,0.0006370138144,0.4399999976,101269.7656,3.5,70,0,0,-4.402560234,-0.0993912369,-0.1459255368,0.3323242962
0.1650000066,-1.23787828e-07,8.559694464e-08,-0.07363060117,8.278027963e-06,-5.942229109e-08,4.810319751e-06,0,0,-0.5284078717,0.0008057640516,0.0006708291476,0.0007653635694,343.0568237,-342.7942505,343.1203308,-342.77948,0,0,0,0,0,0,0,0,0,0,0,0,1,0.1991889775,0.04091395438,-13.66716671,-0.008695355617,-0.00682485057,0.002252924722,0.4399999976,101269.7188,3.5,70,0,0,-4.47371006,0.2907583117,0.315149039,0.2188968211
0.1700000018,-1.364968796e-07,8.543984364e-08,-0.0762726441,7.372052096e-06,7.343459856e-06,1.163290472e-05,0,0,-0.550799191,0.001480577281,0.001364517026,-0.0001811950933,342.8463745,-342.979126,342.9694824,-342.9559021,0,0,0,0,0,0,0,0,0,0,0,0,1,0.2731885612,0.1092455611,-13.57053661,-0.008021480404,-0.006126695313,0.00281867967,0.4399999976,101269.6797,3.5,70,0,0,-4.478263855,0.1349626482,0.1387375742,-0.1893117279
0.174999997,-1.68534001e-07,1.056634673e-07,-0.07902663946,1.451639582e-05,1.058347516e-05,1.447359682e-05,0,0,-0.573006928,0.0006479863659,0.0005681489711,0.001428864663,343.1906433,-342.6618042,343.2469177,-342.6514893,0,0,0,0,0,0,0,0,0,0,0,0,1,0.1820291728,0.02505925298,-13.68959045,-0.008852913976,-0.006928191986,0.002097424818,0.4399999976,101269.6328,3.5,70,0,0,-4.441547394,-0.1665181816,-0.1592736095,0.3220119476
0.1800000072,-2.100018008e-07,1.359848909e-07,-0.08189167082,2.11770257e-05,1.309145773e-05,1.749359762e-05,0,0,-0.5948538184,0.0005015773349,0.0006040142034,0.001332119573,343.1788025,-342.6717224,343.2303772,-342.6699829,0,0,0,0,0,0,0,0,0,0,0,0,1,0.2124675512,0.05328053236,-13.64978409,-0.008999119513,-0.006892095786,0.002332163975,0.4399999976,101269.5859,3.5,70,0,0,-4.36937809,-0.0292818062,0.00717304647,-0.01934901811
0.1850000024,-2.620332964e-07,1.749213112e-07,-0.0848659426,1.689082092e-05,1.371137841e-06,5.332948604e-06,0,0,-0.6162621379,-0.002344049048,-0.002432140987,-0.0008572090883,342.883728,-343.0748596,342.6869812,-343.1052856,0,0,0,0,0,0,0,0,0,0,0,0,1,-0.1717523634,-0.3017172217,-14.15165329,-0.01184079051,-0.009947803803,-0.0005964390584,0.4399999976,101269.5391,3.5,70,0,0,-4.281663895,-0.5691252947,-0.6072310209,-0.4378657341
0.1899999976,-2.784658477e-07,1.791459283e-07,-0.08794724941,1.148920273e-05,-2.242024266e-06,2.269288871e-06,0,0,-0.6375802755,-0.0007226266898,-0.00061273342,-0.001080322778,342.7675476,-343.1286011,342.7113953,-343.1433105,0,0,0,0,0,0,0,0,0,0,0,0,1,0.07766699791,-0.07120426744,-13.82582664,-0.01022162195,-0.008116679266,0.001163472189,0.4399999976,101269.4922,3.5,70,0,0,-4.263627529,0.3242844641,0.3638815284,-0.04462273791
0.1949999928,-2.857000254e-07,1.719984937e-07,-0.09113515168,7.971895684e-06,-2.643678499e-06,1.311738288e-06,0,0,-0.6592390537,-8.032926416e-05,-0.000191508545,-0.0007034619339,342.8142395,-343.0674744,342.8036194,-343.0655212,0,0,0,0,0,0,0,0,0,0,0,0,1,0.08851865679,-0.06133075058,-13.81173038,-0.009580217302,-0.007692741696,0.001291534631,0.4399999976,101269.4453,3.5,70,0,0,-4.331755638,0.1284594834,0.08424497396,0.07537216693
0.200000003,-2.900237064e-07,1.632843833e-07,-0.09443134815,7.332761925e-06,-1.694800289e-06,1.299702262e-06,0,0,-0.6815107465,0.0001897758193,-2.406869726e-06,-0.0001278267591,342.9134827,-342.961731,342.9226379,-342.9530334,0,0,0,0,0,0,0,0,0,0,0,0,1,0.1021276265,-0.04879964143,-13.79397202,-0.009310487658,-0.007502422202,0.001454712823,0.4399999976,101269.3906,3.5,70,0,0,-4.454338551,0.05402101576,0.03782033548,0.1151270345
0.2049999982,-2.944524624e-07,1.575092341e-07,-0.09783890098,1.002570752e-05,3.16573778e-06,5.604228136e-06,0,0,-0.7040526271,0.0009721068782,0.0008609042852,0.000538590597,343.0070801,-342.8371887,343.0859985,-342.8205872,0,0,0,0,0,0,0,0,0,0,0,0,1,0.2112178355,0.05199785158,-13.65147972,-0.008529243991,-0.006633551326,0.00230181613,0.4399999976,101269.3359,3.5,70,0,0,-4.508376122,0.1564662158,0.1726622283,0.1332834661
0.2099999934,-3.141809373e-07,1.686532585e-07,-0.1013591662,1.368235462e-05,1.169567986e-05,1.418435568e-05,0,0,-0.7263430953,0.001705984236,0.001716027851,0.0007313240785,343.0116882,-342.8009644,343.1593628,-342.7788391,0,0,0,0,0,0,0,0,0,0,0,0,1,0.3226746023,0.1549977809,-13.50588799,-0.007796386722,-0.005772920791,0.003132004756,0.4399999976,101269.2891,3.5,70,0,0,-4.458093643,0.1467754692,0.1710247099,0.03854669631
0.2150000036,-3.656950582e-07,2.1112794e-07,-0.1049908772,1.989023986e-05,1.173679811e-05,1.412530037e-05,0,0,-0.7482966781,8.206113307e-06,-1.179653009e-05,0.001241577324,343.1838989,-342.6887207,343.189209,-342.6890564,0,0,0,0,0,0,0,0,0,0,0,0,1,0.1136323884,-0.03810697421,-13.77892113,-0.009491804987,-0.007511872333,0.001552698552,0.4399999976,101269.2344,3.5,70,0,0,-4.390716553,-0.3395556211,-0.345564872,0.1020506471
0.2199999988,-4.185455111e-07,2.550399358e-07,-0.1087323651,2.265253715e-05,1.047239675e-05,1.366269316e-05,0,0,-0.7698620558,-0.0002528880141,-9.251503798e-05,0.0005524605513,343.0624695,-342.8130493,343.0519409,-342.8234253,0,0,0,0,0,0,0,0,0,0,0,0,1,0.1354981661,-0.01778951101,-13.75030327,-0.009752536193,-0.007593110669,0.00166819396,0.4399999976,101269.1719,3.5,70,0,0,-4.313075542,-0.05221882463,-0.01614370197,-0.1378233582
0.224999994,-4.711383781e-07,2.953502474e-07,-0.1125816777,2.173563553e-05,1.407449417e-05,1.853072354e-05,0,0,-0.7911197543,0.0007204219582,0.0009736042703,-0.0001833903807,342.8789063,-342.9585571,342.9543457,-342.9590759,0,0,0,0,0,0,0,0,0,0,0,0,1,0.2752029896,0.111306265,-13.56781292,-0.008780579083,-0.006520125549,0.002622666769,0.4399999976,101269.1172,3.5,70,0,0,-4.251539707,0.1946619898,0.2132238597,-0.147170186
0.2300000042,-5.44439672e-07,3.51021697e-07,-0.1165372729,2.350962859e-05,3.969862519e-06,8.062354027e-06,0,0,-0.8124433756,-0.002020932967,-0.002093669027,0.0003548279637,343.1042175,-342.84198,342.9360657,-342.8686218,0,0,0,0,0,0,0,0,0,0,0,0,1,-0.1252346188,-0.2587307096,-14.09088612,-0.01151812356,-0.009607152082,-0.0003748213639,0.4399999976,101269.0547,3.5,70,0,0,-4.264724255,-0.5482710004,-0.6134546399,0.1076436713
0.2349999994,-5.771910878e-07,3.671473792e-07,-0.1205994934,1.483572942e-05,-1.61617354e-05,-1.317186798e-05,0,0,-0.8339949846,-0.004026305862,-0.004246851429,-0.001734763035,342.7913513,-343.234314,342.4428101,-343.2823792,0,0,0,0,0,0,0,0,0,0,0,0,1,-0.3867557943,-0.5003358722,-14.43246555,-0.01352070924,-0.01177420095,-0.002300878754,0.4399999976,101269,3.5,70,0,0,-4.310321808,-0.4010745883,-0.4306364655,-0.4179182053
0.2399999946,-5.222637469e-07,2.997541628e-07,-0.1247694641,3.700188245e-07,-4.450232154e-06,-7.024627848e-07,0,0,-0.8557816148,0.002342262538,0.002493927954,-0.00289310189,342.2877808,-343.5012207,342.4872742,-343.4746094,0,0,0,0,0,0,0,0,0,0,0,0,1,0.4539754391,0.2764112353,-13.33432484,-0.007160992827,-0.004990010988,0.003887841711,0.4399999976,101268.9375,3.5,70,0,0,-4.357326031,1.273713589,1.348155975,-0.2316677719
0.2450000048,-5.192579806e-07,2.807120438e-07,-0.1290483773,3.200448418e-06,-8.544160664e-06,-7.90703416e-06,0,0,-0.8782500625,-0.00081878528,-0.001440916909,0.0005660795141,343.0939026,-342.8332214,343.0010071,-342.8227234,0,0,0,0,0,0,0,0,0,0,0,0,1,-0.1373744011,-0.2702947557,-14.10691643,-0.0103176469,-0.008950196207,-0.0003828821355,0.4399999976,101268.875,3.5,70,0,0,-4.493689537,-0.6322095394,-0.7869689465,0.6918362975
0.25,-4.845360877e-07,2.431926021e-07,-0.1334396303,4.715846899e-06,-1.428435826e-05,-1.555844574e-05,0,0,-0.901360333,-0.00114803703,-0.001530284761,0.0003030666267,343.0557251,-342.8762207,342.9410095,-342.8778992,0,0,0,0,0,0,0,0,0,0,0,0,1,-0.1035368443,-0.238871187,-14.06263542,-0.01064644102,-0.009040139616,4.132844697e-05,0.4399999976,101268.8047,3.5,70,0,0,-4.6220541,-0.06585034728,-0.01787357032,-0.05260257795
0.2549999952,-4.144169452e-07,1.788161654e-07,-0.1379464269,-9.839719496e-06,-1.666772368e-05,-1.95836019e-05,0,0,-0.9240890741,-0.0004767183855,-0.0008049896569,-0.002911124611,342.4067688,-343.500946,342.3484802,-343.4946594,0,0,0,0,0,0,0,0,0,0,0,0,1,-0.03595869988,-0.1764933616,-13.97440815,-0.009976055473,-0.008310173638,0.0005060363328,0.4399999976,101268.7422,3.5,70,0,0,-4.545748234,0.1342637241,0.1450590193,-0.6428382397
0.2599999905,-3.239327384e-07,1.018029678e-07,-0.1425668746,-1.36258268e-05,-1.122470894e-05,-1.543745384e-05,0,0,-0.9465404749,0.001088588149,0.0008292420534,-0.0007572077448,342.7468567,-343.103241,342.8231506,-343.0776062,0,0,0,0,0,0,0,0,0,0,0,0,1,0.1479000002,-0.006682765204,-13.73429203,-0.008412924595,-0.006665417459,0.001845806604,0.4399999976,101268.6719,3.5,70,0,0,-4.490280151,0.3130613267,0.3268463612,0.4307833612
0.2649999857,-2.508725743e-07,4.867877124e-08,-0.1472995728,-5.172736564e-06,-4.878520485e-07,-5.505241461e-06,0,0,-0.9693866968,0.002147397492,0.001986423507,0.001690640463,343.1701355,-342.6376038,343.342041,-342.6011047,0,0,0,0,0,0,0,0,0,0,0,0,1,0.2825179398,0.1176713631,-13.55847549,-0.007355587091,-0.005500783678,0.003017382463,0.4399999976,101268.6094,3.5,70,0,0,-4.569244385,0.211761862,0.2314362973,0.4895696342
0.2700000107,-2.241890513e-07,4.631404593e-08,-0.1521465033,-1.087264536e-06,6.841235972e-06,1.588421128e-06,0,0,-0.9922180772,0.001465822221,0.001418732223,0.0008170951623,343.0314941,-342.7943726,343.1534729,-342.7715454,0,0,0,0,0,0,0,0,0,0,0,0,1,0.2225290239,0.06230233237,-13.63681126,-0.008036214858,-0.006072130986,0.002622111933,0.4399999976,101268.5391,3.5,70,0,0,-4.566276073,-0.1363150477,-0.1135382578,-0.1747090667
0.275000006,-2.320693113e-07,8.025403986e-08,-0.1571075916,2.982367278e-06,4.988818546e-06,8.133065421e-08,0,0,-1.014457107,-0.0003704847186,-0.0003014125396,0.0008139284328,343.1082153,-342.7776184,343.080719,-342.7843323,0,0,0,0,0,0,0,0,0,0,0,0,1,0.03423002362,-0.1115601063,-13.88271523,-0.00986996945,-0.007803353481,0.00113003829,0.4399999976,101268.4688,3.5,70,0,0,-4.447805882,-0.36726138,-0.3440289497,-0.0006333459169
0.2800000012,-2.324819235e-07,1.055587475e-07,-0.1621798873,4.113977411e-06,4.169853128e-06,6.5989218e-07,0,0,-1.036019564,-0.0001637930545,0.000115713432,0.0002263213973,342.9848938,-342.8863525,342.9818726,-342.8977661,0,0,0,0,0,0,0,0,0,0,0,0,1,0.1145958975,-0.03720342368,-13.77769089,-0.009663565084,-0.007383541204,0.001675545122,0.4399999976,101268.3906,3.5,70,0,0,-4.312491417,0.041338332,0.08342519403,-0.1175214052
0.2849999964,-2.359003162e-07,1.271589838e-07,-0.167359978,1.779710828e-06,5.925338883e-06,3.787828518e-06,0,0,-1.057397127,0.0003510974348,0.0006255853223,-0.0004668559413,342.8296814,-343.0231628,342.8703918,-343.0276184,0,0,0,0,0,0,0,0,0,0,0,0,1,0.1755237281,0.01907453872,-13.69811344,-0.009149390273,-0.006870385725,0.0020764824,0.4399999976,101268.3203,3.5,70,0,0,-4.275512695,0.1029780954,0.1019743755,-0.1386354715
0.2899999917,-2.559265795e-07,1.584861309e-07,-0.1726469696,5.986776159e-06,7.121545877e-06,6.005827345e-06,0,0,-1.079076767,0.0002392381866,0.0004436048039,0.0008414104814,343.086792,-342.7718811,343.1164246,-342.7757874,0,0,0,0,0,0,0,0,0,0,0,0,1,0.1539355069,-0.0008784054662,-13.72630882,-0.009261094034,-0.007053538226,0.001902595512,0.4399999976,101268.2422,3.5,70,0,0,-4.335927963,-0.02237184905,-0.03639610484,0.2616532743
0.2949999869,-2.883305683e-07,1.969094114e-07,-0.1780423522,1.035776768e-05,1.011893892e-05,1.022449032e-05,0,0,-1.100971937,0.0005994734238,0.0008437387878,0.0008741923375,343.0793457,-342.7644653,343.1418457,-342.7651978,0,0,0,0,0,0,0,0,0,0,0,0,1,0.2177468985,0.05811604485,-13.6429348,-0.008901359513,-0.006650827359,0.002402119804,0.4399999976,101268.1719,3.5,70,0,0,-4.379034042,0.07204704732,0.08002679795,0.006556371227
0.3000000119,-3.44615529e-07,2.526121534e-07,-0.1835472137,1.058954967e-05,7.664316399e-06,8.456658179e-06,0,0,-1.122750878,-0.0004909249838,-0.0003535660217,4.63600154e-05,342.9696655,-342.9161072,342.9368591,-342.9282837,0,0,0,0,0,0,0,0,0,0,0,0,1,0.0702380836,-0.07816921175,-13.83560276,-0.00999024231,-0.007855842821,0.001260199002,0.4399999976,101268.0938,3.5,70,0,0,-4.355788231,-0.2180796862,-0.23946096,-0.1655664593
0.3050000072,-3.920895892e-07,2.956372498e-07,-0.1891609579,1.086674456e-05,2.876603503e-06,4.314010766e-06,0,0,-1.144368887,-0.0009575430886,-0.0008285290678,5.544535816e-05,342.9920349,-342.9111328,342.9183044,-342.9293823,0,0,0,0,0,0,0,0,0,0,0,0,1,0.0244654566,-0.120420225,-13.89536667,-0.01045621186,-0.008333864622,0.0008676233119,0.4399999976,101268.0156,3.5,70,0,0,-4.323601723,-0.09332361817,-0.09499260783,0.001817068551
0.3100000024,-4.167738723e-07,3.120964607e-07,-0.1948828101,5.783280358e-06,-5.90205309e-06,-4.62673961e-06,0,0,-1.165968418,-0.001755726873,-0.001788152964,-0.001016687718,342.8226013,-343.1158447,342.6733398,-343.1390991,0,0,0,0,0,0,0,0,0,0,0,0,1,-0.1064668,-0.2414367348,-14.0664072,-0.01125328615,-0.009299668483,-0.0001050415012,0.4399999976,101267.9297,3.5,70,0,0,-4.319906235,-0.1596367508,-0.1919247806,-0.2144266218
0.3149999976,-3.898005048e-07,2.776885708e-07,-0.200712651,-1.610239906e-06,-7.569429727e-06,-6.464089438e-06,0,0,-1.187825322,-0.0003334821376,-0.0003674612672,-0.001478706254,342.6711731,-343.2183838,342.6395874,-343.2217102,0,0,0,0,0,0,0,0,0,0,0,0,1,0.06383065879,-0.08413203061,-13.84398174,-0.009833018295,-0.007869827561,0.001148338546,0.4399999976,101267.8516,3.5,70,0,0,-4.371380806,0.2844489515,0.2841383517,-0.09240370989
0.3199999928,-3.514095397e-07,2.327327024e-07,-0.206651777,-6.308715911e-06,-1.755207268e-05,-1.849009277e-05,0,0,-1.210140944,-0.001996534644,-0.002405193402,-0.0009397134418,342.8487244,-343.1142578,342.6611633,-343.126709,0,0,0,0,0,0,0,0,0,0,0,0,1,-0.2347365171,-0.3601389825,-14.23404408,-0.01149375923,-0.009920682758,-0.0009990483522,0.4399999976,101267.7656,3.5,70,0,0,-4.463124275,-0.3326104879,-0.4075464308,0.1077985615
0.3249999881,-2.395321417e-07,1.26529585e-07,-0.2127024829,-1.454597259e-05,-2.000154564e-05,-2.242228948e-05,0,0,-1.232862711,-0.000489925209,-0.0007864102372,-0.001647465397,342.6448059,-343.2629089,342.5852966,-343.257843,0,0,0,0,0,0,0,0,0,0,0,0,1,-0.03097518161,-0.1718756258,-13.96789265,-0.009989243932,-0.008291474544,0.0005962036666,0.4399999976,101267.6875,3.5,70,0,0,-4.544353485,0.3013218641,0.3237566352,-0.1415503919
0.3300000131,-1.013159192e-07,3.231789947e-09,-0.2188667953,-1.941383744e-05,-9.699583643e-06,-1.3286186e-05,0,0,-1.255806565,0.00206037052,0.001827240223,-0.000973536633,342.6607971,-343.1542358,342.8195801,-343.1162415,0,0,0,0,0,0,0,0,0,0,0,0,1,0.2643068731,0.1008400321,-13.58225822,-0.007442492992,-0.005660992116,0.002836131025,0.4399999976,101267.6016,3.5,70,0,0,-4.588770866,0.5100591779,0.5227300525,0.1347857565
0.3350000083,-1.789270243e-08,-5.767383726e-08,-0.2251458317,-1.116608291e-05,1.04297942e-06,-3.715146704e-06,0,0,-1.27892065,0.002148534637,0.001914191991,0.001649569487,343.1594238,-342.6504517,343.3294983,-342.6114807,0,0,0,0,0,0,0,0,0,0,0,0,1,0.2596192062,0.09646839648,-13.58840942,-0.007354451343,-0.00557348039,0.002902974375,0.4399999976,101267.5156,3.5,70,0,0,-4.622817039,0.01763282344,0.01739035361,0.5246212482
0.3400000036,5.864260189e-09,-5.100466183e-08,-0.2315404266,-4.799930593e-06,-2.4132828e-06,-8.238321243e-06,0,0,-1.301836252,-0.0006912477547,-0.0009046337218,0.001273231464,343.2105103,-342.6981812,343.14328,-342.6989136,0,0,0,0,0,0,0,0,0,0,0,0,1,-0.07533168048,-0.2129157186,-14.02588272,-0.01019028667,-0.008410459384,0.0004893935984,0.4399999976,101267.4219,3.5,70,0,0,-4.583120346,-0.5679564476,-0.5637651086,-0.07526760548
0.3449999988,5.948890447e-08,-6.671341168e-08,-0.2380496114,-1.153685389e-05,-8.880025234e-06,-1.454228368e-05,0,0,-1.323968768,-0.001293359557,-0.001260789344,-0.001347387675,342.7297668,-343.1927185,342.6183472,-343.2100525,0,0,0,0,0,0,0,0,0,0,0,0,1,-0.08709236234,-0.2236489356,-14.04118347,-0.01079156157,-0.008768908679,0.000305887952,0.4399999976,101267.3359,3.5,70,0,0,-4.426503181,-0.1204223633,-0.07123112679,-0.5241238475
0.349999994,1.557558704e-07,-1.254989002e-07,-0.2446694523,-1.844503822e-05,-1.021266053e-05,-1.547434476e-05,0,0,-1.345640779,-0.0002665471402,-0.0001864000806,-0.00138163846,342.6755066,-343.2098999,342.6507874,-343.2146606,0,0,0,0,0,0,0,0,0,0,0,0,1,0.03578549996,-0.1101537645,-13.88070393,-0.009766176343,-0.00768760033,0.001138534746,0.4399999976,101267.2422,3.5,70,0,0,-4.334402084,0.2053624988,0.2148778588,-0.006850156933
0.3549999893,2.598691538e-07,-1.942136834e-07,-0.2513976693,-1.693830745e-05,-3.979665507e-06,-8.903924027e-06,0,0,-1.367737412,0.001246603671,0.001314081019,0.0003013595706,342.9326172,-342.8992615,343.0360413,-342.8829651,0,0,0,0,0,0,0,0,0,0,0,0,1,0.2072247863,0.04818068817,-13.65680218,-0.008255128749,-0.006177456118,0.002488648752,0.4399999976,101267.1484,3.5,70,0,0,-4.419326782,0.3026301563,0.3000962138,0.3365996182
0.3600000143,3.207598525e-07,-2.214303976e-07,-0.2582363486,-1.274770875e-05,-5.763388344e-07,-5.626423444e-06,0,0,-1.390402079,0.0006806728197,0.000655496784,0.0008381222724,343.0618896,-342.7921143,343.116272,-342.7806091,0,0,0,0,0,0,0,0,0,0,0,0,1,0.1168596372,-0.03533798829,-13.77485085,-0.008820272982,-0.006840281654,0.001907016034,0.4399999976,101267.0547,3.5,70,0,0,-4.532933235,-0.1131861731,-0.1317168474,0.1073525399
0.3650000095,3.598747469e-07,-2.25437617e-07,-0.2651883662,-1.097125005e-05,-1.445885346e-06,-6.284682058e-06,0,0,-1.412991166,-0.000173907305,-0.0001316518901,0.0003552916751,343.0057068,-342.8757324,342.9909668,-342.8784485,0,0,0,0,0,0,0,0,0,0,0,0,1,0.03767398,-0.1084275171,-13.87824631,-0.009673665278,-0.007632499561,0.0013069876,0.4399999976,101266.9609,3.5,70,0,0,-4.517817497,-0.1709160209,-0.1574297249,-0.0965661183
0.3700000048,4.042756245e-07,-2.356532178e-07,-0.2722533047,-1.159315616e-05,-8.636848179e-07,-4.894338417e-06,0,0,-1.435102582,0.0001164393325,0.000278068881,-0.0001243807346,342.8997192,-342.9672241,342.9136658,-342.9702454,0,0,0,0,0,0,0,0,0,0,0,0,1,0.102673322,-0.04832135886,-13.7933197,-0.009383722208,-0.007220140193,0.001739669009,0.4399999976,101266.8672,3.5,70,0,0,-4.422283173,0.05806932598,0.08194415271,-0.09593448043
0.375,4.393949382e-07,-2.418510121e-07,-0.2794288397,-1.416472696e-05,-9.47469016e-06,-1.371497456e-05,0,0,-1.456987143,-0.0017222038,-0.00176412682,-0.0005143156741,342.9057007,-343.0340576,342.756073,-343.0550537,0,0,0,0,0,0,0,0,0,0,0,0,1,-0.1663020998,-0.2968795896,-14.14467525,-0.01121980976,-0.009275487624,-0.0002679271565,0.4399999976,101266.7656,3.5,70,0,0,-4.376912117,-0.3677286208,-0.4084391594,-0.07798698545
0.3799999952,5.393066544e-07,-3.108749524e-07,-0.2867137492,-1.874298323e-05,-9.873932868e-06,-1.355567747e-05,0,0,-1.479049683,-7.98610854e-05,3.186812319e-05,-0.0009156511514,342.7554321,-343.1220093,342.7478333,-343.1256104,0,0,0,0,0,0,0,0,0,0,0,0,1,0.07245311886,-0.07624644041,-13.83279133,-0.009579749778,-0.00746792648,0.001506662113,0.4399999976,101266.6719,3.5,70,0,0,-4.412508011,0.3284685314,0.3591989875,-0.08026709408
0.3849999905,6.395528658e-07,-3.838970031e-07,-0.2941090167,-2.316127757e-05,-1.403809983e-05,-1.854712355e-05,0,0,-1.501403689,-0.0008328454569,-0.0009982804768,-0.0008836687193,342.7958069,-343.1184692,342.7140198,-343.1225586,0,0,0,0,0,0,0,0,0,0,0,0,1,-0.09497896582,-0.2310764194,-14.05155754,-0.01033168752,-0.008504709229,0.0003021828888,0.4399999976,101266.5703,3.5,70,0,0,-4.470801353,-0.150596872,-0.2060297132,0.006396486424
0.3899999857,7.787839991e-07,-4.892845027e-07,-0.3016160429,-2.63464608e-05,-1.657442772e-05,-2.185224002e-05,0,0,-1.524101257,-0.0005072774948,-0.00066101423,-0.0006370457704,342.8275757,-343.0758362,342.7720642,-343.0754089,0,0,0,0,0,0,0,0,0,0,0,0,1,-0.05141784623,-0.1908271462,-13.99465466,-0.01000657212,-0.008165271021,0.0006826503668,0.4399999976,101266.4688,3.5,70,0,0,-4.539513588,0.06511358917,0.06745325029,0.04932459071
0.3950000107,9.453058283e-07,-6.155944448e-07,-0.3092365265,-3.055214984e-05,-1.647604768e-05,-2.263328133e-05,0,0,-1.546965599,1.965774027e-05,-0.0001561943791,-0.000841140165,342.7646179,-343.12146,342.7520142,-343.112793,0,0,0,0,0,0,0,0,0,0,0,0,1,-0.005186084658,-0.1481657028,-13.93430042,-0.009480369277,-0.007657200098,0.001081569586,0.4399999976,101266.3672,3.5,70,0,0,-4.572868347,0.1053870395,0.1009639725,-0.04081887752
0.400000006,1.120366505e-06,-7.430392088e-07,-0.3169713616,-3.689482764e-05,-2.705827137e-05,-3.529318565e-05,0,0,-1.569862843,-0.002116473159,-0.002531959908,-0.001268577296,342.7747192,-343.1966553,342.571228,-343.2082825,0,0,0,0,0,0,0,0,0,0,0,0,1,-0.3284801841,-0.4469442368,-14.35662556,-0.01161353104,-0.01004826557,-0.001265236875,0.4399999976,101266.2656,3.5,70,0,0,-4.5794487,-0.427226156,-0.4751530886,-0.08548742533
0.4050000012,1.397385972e-06,-9.554382814e-07,-0.3248206675,-4.255869862e-05,-1.822724516e-05,-2.647176007e-05,0,0,-1.592870712,0.001766165602,0.00176431553,-0.001132726553,342.6264038,-343.1939087,342.7640381,-343.1665039,0,0,0,0,0,0,0,0,0,0,0,0,1,0.2269077599,0.06625916809,-13.63115692,-0.007736288942,-0.005724322051,0.002896393416,0.4399999976,101266.1563,3.5,70,0,0,-4.601573944,0.7765277028,0.8592550755,0.02717014775
0.4099999964,1.608210255e-06,-1.100615464e-06,-0.3327850401,-4.201089905e-05,-1.466395133e-05,-2.438505362e-05,0,0,-1.615997553,0.0007126616547,0.0004173392663,0.0001095673069,342.9115295,-342.9551086,342.952301,-342.9319153,0,0,0,0,0,0,0,0,0,0,0,0,1,0.002565574599,-0.1411941051,-13.9242897,-0.008788328618,-0.007079972886,0.001320557902,0.4399999976,101266.0469,3.5,70,0,0,-4.625368118,-0.2107007951,-0.269395262,0.2484587729
0.4149999917,1.805236252e-06,-1.219108299e-06,-0.340865016,-3.62626015e-05,-7.146997177e-06,-1.680011155e-05,0,0,-1.639245629,0.001503418898,0.001516971504,0.00114968163,343.0733032,-342.7535095,343.1936035,-342.7304688,0,0,0,0,0,0,0,0,0,0,0,0,1,0.176208362,0.01937430725,-13.69741249,-0.007998670451,-0.005973258987,0.002680355217,0.4399999976,101265.9453,3.5,70,0,0,-4.649615288,0.1581514478,0.2199264467,0.2080228627
0.4199999869,1.942931704e-06,-1.277691695e-06,-0.3490612507,-3.723254486e-05,-1.791142131e-05,-2.856423089e-05,0,0,-1.662112951,-0.002152888104,-0.002352822572,-0.000194005188,342.9752502,-342.9884644,342.7791748,-343.0079956,0,0,0,0,0,0,0,0,0,0,0,0,1,-0.3222339451,-0.4411742985,-14.34849548,-0.01164989546,-0.009867974557,-0.00100290007,0.4399999976,101265.8359,3.5,70,0,0,-4.573464394,-0.7312613726,-0.7739588022,-0.2687373757
0.4250000119,2.180310958e-06,-1.426554604e-06,-0.3573718071,-4.635693767e-05,-2.054285687e-05,-3.04386831e-05,0,0,-1.684472919,-0.0005263393396,-0.0003748577146,-0.001824885723,342.5858459,-343.3097229,342.536438,-343.3188782,0,0,0,0,0,0,0,0,0,0,0,0,1,-0.03794117644,-0.1783758253,-13.97708893,-0.01002560742,-0.007877271622,0.001036591013,0.4399999976,101265.7188,3.5,70,0,0,-4.471993446,0.3253097534,0.3955929577,-0.3261761069
0.4300000072,2.436668638e-06,-1.599585858e-06,-0.3678643703,-4.533468746e-05,-7.399612514e-07,-8.847691788e-06,0,0,-1.712402701,0.003960585222,0.004318193998,0.0002045389265,342.7781067,-342.9497986,343.1176758,-342.9052734,0,0,0,0,0,0,0,0,0,0,0,0,1,0.5286428332,0.3450307548,-13.23706532,-0.005544919521,-0.003153996542,0.005242934451,0.4446844757,101265.6094,3.5,70,0,0,-5.585956573,0.897384882,0.9386103749,0.4058849216
0.4350000024,2.512422498e-06,-1.605924808e-06,-0.3784651756,-2.684408719e-05,1.550874367e-05,8.473181879e-06,0,0,-1.740709424,0.003249773989,0.003464172129,0.003698122688,343.4831848,-342.2704468,343.7653503,-342.2319031,0,0,0,0,0,0,0,0,0,0,0,0,1,0.408335954,0.2338282764,-13.39423084,-0.006254742853,-0.004013518337,0.004471665248,0.454120487,101265.4922,3.5,70,0,0,-5.661344528,-0.1421622485,-0.1708043814,0.6987167597
0.4399999976,2.438679303e-06,-1.470941697e-06,-0.3891761601,-9.149969628e-06,2.192561442e-05,1.725080438e-05,0,0,-1.768777609,0.001283344231,0.001755579258,0.003538796445,343.5398865,-342.2709961,343.6704407,-342.2695313,0,0,0,0,0,0,0,0,0,0,0,0,1,0.2639514208,0.1006747931,-13.58269691,-0.008218439296,-0.005733114667,0.003401241265,0.4636668265,101265.3828,3.5,70,0,0,-5.613636971,-0.3932859898,-0.3417185843,-0.03186524659
0.4449999928,2.286116796e-06,-1.277032652e-06,-0.3999961019,-5.453141966e-06,1.480793071e-05,1.304342277e-05,0,0,-1.795467377,-0.001423549489,-0.0008414600743,0.0007393839769,343.121521,-342.780426,343.0283203,-342.8206177,0,0,0,0,0,0,0,0,0,0,0,0,1,-0.01052395254,-0.1527382135,-13.94111729,-0.01092157047,-0.008346878923,0.00115584454,0.4733235538,101265.2656,3.5,70,0,0,-5.337953568,-0.5413787365,-0.5194078684,-0.5598825216
0.4499999881,2.169022309e-06,-1.144096245e-06,-0.4109183848,-4.941420684e-06,1.698159213e-05,1.94612694e-05,-6.252789262e-06,4.19480275e-05,-1.821103215,0.0004347309587,0.001283570891,0.0001023252262,342.9172974,-342.9093323,342.9907837,-342.9334412,0,0,0,0,0,0,0,0,0,0,0,0,1,0.2998070717,0.1341186017,-13.53568935,-0.00906587299,-0.006208162755,0.003239359939,0.4830906391,101265.1484,3.5,70,-0.001250557834,0.008389605209,-5.127167702,0.37165609,0.425006181,-0.1274117529
0.4550000131,1.96055521e-06,-7.797289641e-07,-0.4219380617,-8.671731848e-07,7.604860002e-06,1.187692942e-05,0.000178321061,0.0002361004008,-1.846863151,-0.001875362243,-0.001516854041,0.0008148752968,343.1622009,-342.7674561,343.0222168,-342.7990112,0,0,0,0,0,0,0,0,0,0,0,0,1,-0.07949710637,-0.2164575607,-14.03118229,-0.01137275528,-0.0090266224,0.000391897629,0.4929680824,101265.0313,3.5,70,0.03691476956,0.03883047774,-5.151987076,-0.4620186388,-0.5600849986,0.1425100118
0.4600000083,2.742486231e-06,4.70997918e-07,-0.4330560863,-4.783417353e-06,-6.43576368e-06,-1.175743819e-06,0.0002354218159,0.0003266654967,-1.873250008,-0.002808115445,-0.002610540716,-0.0007832290139,342.8997803,-343.072052,342.6715393,-343.1074829,0,0,0,0,0,0,0,0,0,0,0,0,1,-0.1970383227,-0.3250227273,-14.18467617,-0.01230421197,-0.01012735255,-0.0004820452596,0.5029558539,101264.9063,3.5,70,0.01142015122,0.01811301894,-5.277371407,-0.186550647,-0.218737334,-0.3196208775
0.4650000036,3.930615094e-06,2.044040684e-06,-0.4442757964,-1.509155481e-05,-8.893598533e-06,-2.788910479e-06,0.0002367485868,0.000330683717,-1.900002241,-0.0004915694008,-0.0003226200351,-0.002061629668,342.5545044,-343.3384705,342.5173645,-343.3405457,0,0,0,0,0,0,0,0,0,0,0,0,1,0.07223370671,-0.07631414384,-13.83298969,-0.009990885854,-0.007824697532,0.001459305524,0.5130540729,101264.7891,3.5,70,0.0002653541742,0.0008036440704,-5.350446701,0.4633092284,0.4575841129,-0.2556801438
0.4699999988,5.14087651e-06,3.612951559e-06,-0.4555992484,-1.608692037e-05,-7.370167623e-06,-1.675980343e-06,0.0001928529091,0.000240375346,-1.927165389,0.0003046856436,0.0002225877979,-0.0001990712481,342.879425,-342.9934082,342.8998413,-342.9781799,0,0,0,0,0,0,0,0,0,0,0,0,1,0.09280418605,-0.05748314783,-13.80621052,-0.009195737541,-0.007275978569,0.001658680965,0.5232625604,101264.6641,3.5,70,-0.008779135533,-0.01806167513,-5.432629585,0.1592510194,0.1090415642,0.3725116849
0.474999994,6.121308616e-06,4.743794761e-06,-0.4670285881,-1.049322054e-05,-1.725324637e-06,3.789998573e-06,7.948753773e-05,8.284147771e-05,-1.954844832,0.001128970529,0.001093187602,0.0011187481,343.0975952,-342.7413635,343.1902466,-342.7216797,0,0,0,0,0,0,0,0,0,0,0,0,1,0.1974101663,0.03915128857,-13.66958237,-0.008372598328,-0.00639977213,0.002558332169,0.5335814953,101264.5391,3.5,70,-0.02267307416,-0.03150677308,-5.535888672,0.1648569703,0.1741199642,0.2635638714
0.4799999893,6.48170635e-06,5.141134807e-06,-0.478566438,-1.124649043e-05,-1.114641964e-05,-6.829908216e-06,-1.042054646e-05,-4.158585944e-05,-1.982372165,-0.001884218422,-0.002123981249,-0.0001506577246,342.9866638,-342.9642639,342.8171997,-342.9827576,0,0,0,0,0,0,0,0,0,0,0,0,1,-0.2201064974,-0.3466373086,-14.21496296,-0.01138159912,-0.009637659416,-0.0005131260841,0.5440106988,101264.4141,3.5,70,-0.01798161678,-0.02488546818,-5.505466461,-0.6026377678,-0.6434337497,-0.2538811564
0.4850000143,6.497297363e-06,4.82272344e-06,-0.4902121127,-1.4904007e-05,-3.885136266e-06,1.644959866e-06,-3.291612666e-05,-7.596171781e-05,-2.009336472,0.001452251687,0.001694981824,-0.0007314843824,342.7250061,-343.0910339,342.8531494,-343.081665,0,0,0,0,0,0,0,0,0,0,0,0,1,0.2968716025,0.1311503649,-13.53962326,-0.008049766533,-0.005794102326,0.003243314568,0.5545503497,101264.2891,3.5,70,-0.004499115981,-0.006875171792,-5.392861366,0.6672940254,0.763792634,-0.1161653325
0.4900000095,6.316184226e-06,4.403884759e-06,-0.5019629598,-1.427066945e-05,-1.080943912e-05,-6.471197139e-06,-8.101593266e-06,-0.0001070520811,-2.036015987,-0.00138486072,-0.001623231918,0.0001266612962,343.0172424,-342.9162903,342.8883057,-342.9290466,0,0,0,0,0,0,0,0,0,0,0,0,1,-0.1746817678,-0.3047187626,-14.15566158,-0.01088293549,-0.00913368538,-0.0002318048064,0.5652003288,101264.1641,3.5,70,0.004962906707,-0.006218072493,-5.335903168,-0.5674225092,-0.6636427641,0.1716291308
0.4950000048,6.341544577e-06,3.758583034e-06,-0.5138177276,-1.411597532e-05,-6.721664249e-06,-1.826177595e-06,-2.932102507e-05,-0.0001424892398,-2.062840462,0.0008175551775,0.0009290035814,3.09489551e-05,342.9005737,-342.9428711,342.96875,-342.9386902,0,0,0,0,0,0,0,0,0,0,0,0,1,0.1893831789,0.03179581091,-13.68004513,-0.008683580905,-0.006565013435,0.002506304067,0.5759606361,101264.0313,3.5,70,-0.004243886564,-0.007087431848,-5.364894867,0.4404831529,0.5104470849,-0.01914246753
0.5,6.213764209e-06,2.976810038e-06,-0.5257772207,-1.29403752e-05,1.612784217e-06,6.730416771e-06,-4.124698535e-05,-0.0002008346783,-2.089641333,0.001666890224,0.001711317222,0.0002351315925,342.9046631,-342.9094543,343.0437927,-342.8929443,0,0,0,0,0,0,0,0,0,0,0,0,1,0.2613224089,0.09817377478,-13.58612633,-0.007835426368,-0.005777661689,0.003032729728,0.5868313909,101263.8984,3.5,70,-0.002385192085,-0.01166908816,-5.360174179,0.1698670089,0.156462729,0.04083652794
0.5049999952,5.937195965e-06,1.989491011e-06,-0.5378415585,-4.375931894e-06,6.17159003e-06,1.149364289e-05,-4.84105949e-05,-0.0002316631289,-2.116284132,0.0009117496666,0.0009526479989,0.001712887199,343.2219849,-342.6171875,343.2996521,-342.6120605,0,0,0,0,0,0,0,0,0,0,0,0,1,0.1796918064,0.0227968432,-13.69272614,-0.008589517325,-0.006541216746,0.002430146094,0.5978124142,101263.7656,3.5,70,-0.001432721969,-0.006165690254,-5.328559875,-0.1510281116,-0.1517338455,0.2955511212
0.5099999905,5.573519047e-06,8.964811968e-07,-0.5500100851,5.031195542e-06,1.675134263e-05,2.374068208e-05,-4.030739365e-05,-0.0002079980331,-2.142627716,0.002115929034,0.002449419349,0.001881410368,343.2024231,-342.5822449,343.3952637,-342.5709534,0,0,0,0,0,0,0,0,0,0,0,0,1,0.4069811702,0.23293145,-13.39577389,-0.007387011778,-0.005034806207,0.004098797683,0.6089038849,101263.6328,3.5,70,0.00162064028,0.004733019043,-5.268716812,0.2408358753,0.2993542552,0.03370463476
0.5149999857,5.11764938e-06,3.594817599e-08,-0.5622814894,1.460200838e-05,2.738105468e-05,3.642451338e-05,3.30263465e-05,-0.0001038421979,-2.168322563,0.002125897212,0.002536798129,0.001914120046,343.2105103,-342.5698547,343.4117432,-342.5587463,0,0,0,0,0,0,0,0,0,0,0,0,1,0.4371942282,0.2609078586,-13.3562746,-0.007377057336,-0.004946864676,0.004220197909,0.6201056838,101263.5,3.5,70,0.0146667473,0.0208311677,-5.138969421,0.001993635669,0.01747575589,0.006541935727
0.5199999809,4.887883733e-06,-1.864113841e-07,-0.5746528506,2.741255776e-05,2.604428119e-05,3.689759251e-05,0.0001325514313,7.515915786e-05,-2.193493605,-0.0002674480493,9.468594362e-05,0.002562107285,343.4420471,-342.4251709,343.4430542,-342.4406128,0,0,0,0,0,0,0,0,0,0,0,0,1,0.165906772,0.01036782376,-13.71056175,-0.009767076001,-0.007404704113,0.002101282822,0.6314178109,101263.3672,3.5,70,0.01990501769,0.03580027074,-5.034208298,-0.4786690772,-0.4884224534,0.1295974553
0.5249999762,5.145949672e-06,4.750312428e-07,-0.5871218443,2.987922562e-05,1.468186656e-05,2.729804328e-05,0.0002503530995,0.0003199561033,-2.218160391,-0.002272501122,-0.001919896924,0.0004933833843,343.1349182,-342.8070068,342.966156,-342.842804,0,0,0,0,0,0,0,0,0,0,0,0,1,-0.04799930751,-0.1871453971,-13.98989391,-0.01176934224,-0.009432260878,0.00040280947,0.6428403258,101263.2266,3.5,70,0.023560334,0.04895938933,-4.933357239,-0.4010106027,-0.4029166102,-0.4137448072
0.5299999714,6.09490553e-06,2.237673698e-06,-0.5996863842,2.1153126e-05,5.867601431e-06,2.008283991e-05,0.0003775471414,0.0005602104939,-2.242540121,-0.00176280539,-0.001443066518,-0.00174519862,342.6837463,-343.2461548,342.5544739,-343.26651,0,0,0,0,0,0,0,0,0,0,0,0,1,0.01702690125,-0.1270665377,-13.90494919,-0.01126035489,-0.008952359669,0.0007244889857,0.6543732285,101263.0859,3.5,70,0.0254388079,0.04805087671,-4.875946045,0.1019391492,0.09536608309,-0.4477163851
0.5350000262,7.757397725e-06,5.104552656e-06,-0.6123454571,1.459561827e-05,-8.859556146e-06,4.907506991e-06,0.0004363180778,0.0006752383197,-2.26736474,-0.002945405198,-0.003035074333,-0.001311483677,342.8210754,-343.1689148,342.5738525,-343.1870422,0,0,0,0,0,0,0,0,0,0,0,0,1,-0.2264145464,-0.3521571457,-14.22301006,-0.01244131103,-0.01055462006,-0.001110711601,0.6660164595,101262.9531,3.5,70,0.01175418682,0.02300556563,-4.964923859,-0.2365199625,-0.3184015751,0.08674298972
0.5400000215,9.883304301e-06,8.380336112e-06,-0.6251016259,6.268540346e-06,-1.575878923e-05,-2.628366474e-06,0.0003721993126,0.0006322778645,-2.293093204,-0.001379838563,-0.001507159905,-0.001665428979,342.6849976,-343.2523804,342.5646667,-343.2488098,0,0,0,0,0,0,0,0,0,0,0,0,1,-0.05659022555,-0.195334509,-14.00122833,-0.01087792031,-0.009016865864,0.0002450907778,0.6777700782,101262.8047,3.5,70,-0.01282375306,-0.008592091501,-5.145692825,0.3131133318,0.305582881,-0.07078906149
0.5450000167,1.177441754e-05,1.136105493e-05,-0.6379596591,-2.915794539e-06,-1.580944809e-05,-3.938841928e-06,0.0002458802483,0.0004559446243,-2.319516182,-1.013663496e-05,-0.0002620661107,-0.00183687103,342.59198,-343.2998047,342.5808411,-343.2782593,0,0,0,0,0,0,0,0,0,0,0,0,1,0.04548327252,-0.1012032703,-13.86800098,-0.00951012224,-0.007763753645,0.001074952772,0.6896340251,101262.6641,3.5,70,-0.02526381239,-0.03526664898,-5.28459549,0.2739403844,0.2490187585,-0.0342884101
0.5500000119,1.304950638e-05,1.345742294e-05,-0.6509231329,-1.132581247e-06,-8.200064258e-06,2.842495178e-06,9.206477989e-05,0.0002244848438,-2.346328735,0.001521878294,0.001356261899,0.0003566641244,342.9439697,-342.8867188,343.0657349,-342.8544617,0,0,0,0,0,0,0,0,0,0,0,0,1,0.2242707461,0.06391703337,-13.63451576,-0.007980236784,-0.006135003641,0.002494974295,0.7016083598,101262.5234,3.5,70,-0.03076309152,-0.04629195482,-5.362510681,0.3064029813,0.3236656189,0.4387070537
0.5550000072,1.347648413e-05,1.448364674e-05,-0.6639940739,5.424262781e-06,-3.616169124e-07,1.037226866e-05,-3.907961582e-05,2.146073166e-05,-2.37308383,0.001567685744,0.001505943947,0.001311381115,343.1248169,-342.6960754,343.2565002,-342.6734924,0,0,0,0,0,0,0,0,0,0,0,0,1,0.2357919216,0.07456015795,-13.61948013,-0.007934493013,-0.005984357558,0.002690780908,0.7136930227,101262.375,3.5,70,-0.02622887865,-0.04060482234,-5.351018906,0.009161490016,0.02993641049,0.190943405
0.5600000024,1.315801455e-05,1.458665793e-05,-0.6771723032,6.266428045e-06,-7.912893125e-06,2.218479494e-06,-9.391200001e-05,-6.188158295e-05,-2.399220467,-0.001510256901,-0.001630757935,0.0001684324816,343.0386963,-342.891571,342.908783,-342.9118347,0,0,0,0,0,0,0,0,0,0,0,0,1,-0.149079144,-0.28098315,-14.12217808,-0.01100815739,-0.009141259827,-0.0001752765966,0.7258880734,101262.2266,3.5,70,-0.01096647698,-0.01666846126,-5.227327347,-0.6155885458,-0.6273403764,-0.2285897285
0.5649999976,1.266184427e-05,1.418232296e-05,-0.6904549003,4.353367785e-06,-1.103650902e-06,1.081014489e-05,-6.890452642e-05,-2.418644181e-05,-2.424614668,0.001361849252,0.001718336134,-0.0003825984895,342.8032227,-343.0094604,342.9321899,-343.0060425,0,0,0,0,0,0,0,0,0,0,0,0,1,0.3160295784,0.1489037275,-13.51457787,-0.008140043356,-0.005770597607,0.003183313413,0.738193512,101262.0859,3.5,70,0.005001494661,0.007539028767,-5.078840256,0.574421227,0.6698188186,-0.1102061942
0.5699999928,1.21862704e-05,1.404800878e-05,-0.703838408,5.902591511e-06,-2.323508852e-06,9.650178072e-06,4.424044164e-06,1.380815684e-05,-2.449674129,-0.000243974966,-0.0002319936466,0.0003098445013,343.009491,-342.8727417,342.991333,-342.8773193,0,0,0,0,0,0,0,0,0,0,0,0,1,0.03333444148,-0.1124220639,-13.88389874,-0.009743635543,-0.007733487524,0.001081939437,0.7506092787,101261.9297,3.5,70,0.01466571447,0.007598919794,-5.011892319,-0.3211648464,-0.3900659382,0.1384885907
0.5749999881,1.209019138e-05,1.408858952e-05,-0.7173213959,8.004000847e-06,-5.569851055e-06,6.795074114e-06,1.570160384e-05,4.100077786e-05,-2.474919081,-0.0006492724642,-0.000571021752,0.0004202804994,343.0480347,-342.8468323,342.997467,-342.8585205,0,0,0,0,0,0,0,0,0,0,0,0,1,0.0221217759,-0.1226851866,-13.89848709,-0.01014836971,-0.00807469897,0.001021446194,0.7631354332,101261.7813,3.5,70,0.002255511936,0.005438524298,-5.04899025,-0.08105950058,-0.06780561805,0.02208719961
0.5799999833,1.208461163e-05,1.422466903e-05,-0.730905056,2.281933575e-06,-1.441226414e-05,-2.381023478e-06,2.129672976e-05,5.529334885e-05,-2.500141382,-0.001768474816,-0.001835213159,-0.001144423732,342.7975769,-343.1433716,342.6452942,-343.1646423,0,0,0,0,0,0,0,0,0,0,0,0,1,-0.1461997777,-0.2782382667,-14.11836338,-0.0112660164,-0.009347031824,-0.0002426303108,0.7757719755,101261.6328,3.5,70,0.001119025168,0.002858514199,-5.044460297,-0.2238404751,-0.2528382838,-0.312940836
0.5849999785,1.222085939e-05,1.43209727e-05,-0.7445896268,-3.747154551e-06,-8.770866771e-06,3.876091341e-06,3.301869947e-05,5.666312063e-05,-2.525290489,0.001128276694,0.001251440379,-0.001205799635,342.6571045,-343.1755981,342.7547607,-343.1634216,0,0,0,0,0,0,0,0,0,0,0,0,1,0.2458847463,0.08402840048,-13.6062212,-0.008373291232,-0.006240500137,0.002628789982,0.7885187864,101261.4766,3.5,70,0.00234439387,0.0002739543561,-5.029821396,0.5793502927,0.61733073,-0.01227518078
0.5899999738,1.233701187e-05,1.449354295e-05,-0.7583748698,1.457190592e-06,-2.264654995e-06,1.005439663e-05,1.567577056e-05,-2.168997344e-05,-2.55074048,0.001301238313,0.0012356519,0.00104087987,343.0831299,-342.7483215,343.1901855,-342.7292175,0,0,0,0,0,0,0,0,0,0,0,0,1,0.209848538,0.05061269924,-13.65335369,-0.00820057001,-0.006256390363,0.002430269029,0.8013760448,101261.3203,3.5,70,-0.003468585666,-0.01567061804,-5.089998245,0.03459232301,-0.003157695755,0.4493359029
0.5950000286,1.228715973e-05,1.435621016e-05,-0.7722626328,9.738381777e-06,4.956415978e-06,1.766310015e-05,-4.203058052e-05,-9.515770944e-05,-2.576342106,0.001444197609,0.001521737198,0.001656241715,343.1955261,-342.6230164,343.3224487,-342.6098633,0,0,0,0,0,0,0,0,0,0,0,0,1,0.2698367536,0.1061219797,-13.57495308,-0.008057809435,-0.005968462676,0.002946943277,0.8143436313,101261.1641,3.5,70,-0.01154127065,-0.01469354797,-5.120325089,0.02859186009,0.05721706152,0.1230723709
0.6000000238,1.184947996e-05,1.394426454e-05,-0.7862537503,8.871053069e-06,-9.608555047e-06,2.196231435e-06,-5.338934716e-05,-8.364320092e-05,-2.601470947,-0.002912991215,-0.003093374893,-0.0001734503312,343.0354919,-342.9463196,342.7851868,-342.9838562,0,0,0,0,0,0,0,0,0,0,0,0,1,-0.3084926903,-0.428201586,-14.3303566,-0.01240894198,-0.01061329618,-0.001390745863,0.8274216056,101261.0078,3.5,70,-0.00227175327,0.002302901819,-5.02576828,-0.871437788,-0.923022449,-0.3659383953
0.6050000191,1.155397058e-05,1.340106428e-05,-0.8003461361,-1.017437171e-06,-1.685917596e-05,-4.505591278e-06,-6.604903319e-06,2.666591536e-05,-2.625958443,-0.001450119773,-0.001340345596,-0.001977710985,342.6210022,-343.3025513,342.5006104,-343.3266907,0,0,0,0,0,0,0,0,0,0,0,0,1,-0.05049093068,-0.1896988302,-13.99328995,-0.01094810385,-0.008848977275,0.0004153998743,0.8406099081,101260.8516,3.5,70,0.009356888942,0.0220618248,-4.897499084,0.2925742865,0.3506058455,-0.3608521223
0.6100000143,1.158010309e-05,1.331303611e-05,-0.8145369291,-1.200073348e-05,-2.533962106e-05,-1.432682984e-05,5.662650801e-05,5.018150841e-05,-2.650486231,-0.001696098945,-0.001964210765,-0.002196692396,342.5915222,-343.3573303,342.4328613,-343.3691711,0,0,0,0,0,0,0,0,0,0,0,0,1,-0.187544167,-0.3165377378,-14.17241478,-0.01119374111,-0.009476860054,-0.0005895888899,0.8539085984,101260.6953,3.5,70,0.01264628209,0.004703118466,-4.905557632,-0.0491958335,-0.124773033,-0.04379628226
0.6150000095,1.205310036e-05,1.322812659e-05,-0.8288266659,-1.690640056e-05,-2.248950477e-05,-1.269034328e-05,1.188889655e-05,-6.919017324e-05,-2.675835371,0.0005700091715,0.0003273222537,-0.0009811251657,342.7250366,-343.1429443,342.7556458,-343.1272278,0,0,0,0,0,0,0,0,0,0,0,0,1,0.08631426096,-0.06356976181,-13.81473064,-0.008930782788,-0.007170569617,0.001553389942,0.8673176169,101260.5313,3.5,70,-0.008947522379,-0.02387433685,-5.069828033,0.4532216191,0.4583065808,0.2431134433
0.6200000048,1.228232031e-05,1.258128123e-05,-0.8432195783,-1.442660232e-05,-8.930005606e-06,-1.056223482e-07,-9.730422607e-05,-0.0003013387031,-2.701852322,0.002711906098,0.002516933018,0.0004960162332,342.915863,-342.8709412,343.1300049,-342.8340759,0,0,0,0,0,0,0,0,0,0,0,0,1,0.3340602815,0.1652435809,-13.49117565,-0.006791863125,-0.004966857843,0.003518414916,0.8808370233,101260.3672,3.5,70,-0.02183862403,-0.0464297086,-5.203390121,0.4283793867,0.4379221797,0.2954282761
0.625,1.179720221e-05,1.095395692e-05,-0.8577191234,-9.168474207e-06,-1.108134802e-05,-4.237736448e-06,-0.0001896579051,-0.0004910607822,-2.72777009,-0.000430268381,-0.000826432195,0.001051618252,343.1604614,-342.7411194,343.1034851,-342.7458191,0,0,0,0,0,0,0,0,0,0,0,0,1,-0.09676222503,-0.2328286171,-14.05393124,-0.009929670021,-0.008331754245,0.0003957338922,0.8944668174,101260.2031,3.5,70,-0.01847073622,-0.03794441745,-5.183553696,-0.6284348965,-0.6686730385,0.1111204028
0.6299999952,1.090668684e-05,8.347524272e-06,-0.8723249435,-1.485327266e-05,-2.912753916e-05,-2.416610914e-05,-0.0002238043089,-0.000529319339,-2.753035069,-0.003609243315,-0.003985662013,-0.001137003768,342.8762817,-343.1385803,342.5476685,-343.1883545,0,0,0,0,0,0,0,0,0,0,0,0,1,-0.4614223242,-0.5696242452,-14.53018379,-0.01310422644,-0.01151132956,-0.002326585352,0.9082069397,101260.0391,3.5,70,-0.006829280872,-0.007651711348,-5.052995682,-0.6357949972,-0.6318459511,-0.4377244115
0.6349999905,1.012027042e-05,5.299993518e-06,-0.8870339394,-3.348944301e-05,-3.393543739e-05,-2.987665903e-05,-0.00016434399,-0.0005040418473,-2.777640343,-0.0009616699535,-0.001142001362,-0.003727267962,342.2595825,-343.6591797,342.1551208,-343.6769714,0,0,0,0,0,0,0,0,0,0,0,0,1,-0.1040391773,-0.239425391,-14.06337547,-0.01046033297,-0.008649355732,0.0002535876411,0.9220574498,101259.875,3.5,70,0.01189206354,0.005055498332,-4.92105484,0.5295146704,0.5687321424,-0.5180528164
0.6399999857,9.713383406e-06,2.308495823e-06,-0.9018431306,-4.194726716e-05,-2.991244583e-05,-2.819544716e-05,-0.0001180418694,-0.0006252829335,-2.80263114,0.000804547919,0.0003362996795,-0.001691553625,342.5740967,-343.2940369,342.6044922,-343.2782288,0,0,0,0,0,0,0,0,0,0,0,0,1,0.01659678109,-0.1282007843,-13.90592003,-0.008696570061,-0.007161534391,0.001215558266,0.9360182881,101259.7031,3.5,70,0.009260424413,-0.0242482163,-4.998159409,0.3532435894,0.2956601977,0.4071428478
0.6449999809,9.518132174e-06,-1.237078322e-06,-0.9167546034,-3.561680569e-05,-1.783913467e-05,-1.840872937e-05,-0.000206647368,-0.0008987619076,-2.828674793,0.002414698014,0.001957305707,0.001266150735,343.072937,-342.7347717,343.2391357,-342.704071,0,0,0,0,0,0,0,0,0,0,0,0,1,0.2066734135,0.04736745358,-13.65766811,-0.007088657934,-0.00553008914,0.002850305289,0.9500895143,101259.5391,3.5,70,-0.01772109978,-0.05469579622,-5.208730698,0.3220300078,0.3242012262,0.5915408731
0.6499999762,8.745088053e-06,-5.98316592e-06,-0.9317737222,-2.832374776e-05,-4.615721991e-07,-2.260234396e-06,-0.0003150960547,-0.001157135121,-2.854884386,0.003475539386,0.003229673021,0.001458669314,343.0641479,-342.6932983,343.3303833,-342.6630249,0,0,0,0,0,0,0,0,0,0,0,0,1,0.3778764606,0.205601722,-13.43402386,-0.006029291078,-0.004249527585,0.004225154873,0.9642710686,101259.3672,3.5,70,-0.02168973722,-0.05167464167,-5.241918564,0.2121682763,0.2544734478,0.03850371391
0.6549999714,7.201707376e-06,-1.177538616e-05,-0.946901381,-1.718669591e-05,1.050243554e-05,8.203927791e-06,-0.0003240247024,-0.001234585186,-2.880195141,0.002192806685,0.002092831535,0.00222741114,343.2668762,-342.5273438,343.4342957,-342.5223389,0,0,0,0,0,0,0,0,0,0,0,0,1,0.2665342689,0.1028520092,-13.57939625,-0.007310240995,-0.00539369043,0.003332962515,0.9785630107,101259.1953,3.5,70,-0.001785729546,-0.01549001317,-5.062150955,-0.2565465271,-0.2273682952,0.1537483633
0.6600000262,5.463336038e-06,-1.779703598e-05,-0.9621332884,-5.017780495e-06,1.585746577e-05,1.418053944e-05,-0.0002345689863,-0.001097526401,-2.904361725,0.00107098592,0.001195348101,0.002433770569,343.3554382,-342.4704895,343.4396667,-342.48526,0,0,0,0,0,0,0,0,0,0,0,0,1,0.2120393068,0.05270402506,-13.65047169,-0.008430502377,-0.006296953652,0.002848317381,0.9929653406,101259.0234,3.5,70,0.01789114252,0.02741175704,-4.833316803,-0.2243641466,-0.1794966906,0.04127188772
0.6650000215,4.084537977e-06,-2.305438102e-05,-0.977463901,-1.436402954e-06,1.710847027e-05,1.635356239e-05,-7.671125059e-05,-0.0008300970658,-2.927618504,0.0002501908748,0.0004346158239,0.000716268667,343.0632629,-342.7920227,343.0828857,-342.8127136,0,0,0,0,0,0,0,0,0,0,0,0,1,0.1555294693,0.0006129592075,-13.72421265,-0.009250156581,-0.007062585093,0.002300360473,1.007477999,101258.8438,3.5,70,0.03157154843,0.05348586664,-4.651355743,-0.1641590148,-0.1521464586,-0.3435003757
