Time,X,Y,Z,Yaw,Roll,Pitch,Dx,Dy,Dz,P,Q,R,Motor1,Motor2,Motor3,Motor4,X_r,Y_r,Z_r,Yaw_r,Pitch_r,Roll_r,Dx_r,Dy_r,Dz_r,P_r,Q_r,R_r,Flag_Pitch_Roll,Ac_Dx,Ac_Dy,Ac_Dz,Gyro P,Gyro Q,Gyro R,Sonar Altitud,Pressure Altitud,Bat_V,Bat_Percentage,Acceleracion X,Acceleracion Y,Acceleracion Z,Acceleracion P,Acceleracion Q,Acceleracion R
4,-0.0005159670254,-0.0005074468208,-1.501237512,-6.299608685e-06,0.0001912717271,-0.0001615616784,-0.0007039689808,0.0006364324363,-0.004633449018,0.0008195854607,0.0009083883488,-0.001619311748,235.2350922,-235.9202881,235.3366852,-235.8998108,0,0,-1.5,0,0,0,0,0,-300,0,0,0,1,0.2279827893,0.0675393343,-9.203040123,-0.008681553416,-0.006585761439,0.002272292739,1.502158046,101252.8984,3.5,70,-0.1407938004,0.1272864938,-0.9266898036,0.1639170945,0.1816776693,-0.323862344
4.005000114,-0.0005194831174,-0.0005042601842,-1.501286387,-3.470735692e-06,0.0001896635804,-0.0001639634429,-0.0007230264018,0.0004294137761,-0.005175868049,-0.0003215371398,-0.0004802445474,0.0005658664741,235.6289825,-235.4199982,235.6233826,-235.4105682,0,0,-1.5,0,0,0,0,0,0,0,0,0,1,0.01717202365,-0.1273405999,-9.477035522,-0.009821089916,-0.007983337156,0.0008161950973,1.502239585,101252.8984,3.5,70,-0.003811484203,-0.04140373319,-0.1084838063,-0.2282245159,-0.2777265906,0.43703565
4.010000229,-0.0005230939714,-0.0005021081888,-1.501338601,2.6197647e-06,0.0002062385029,-0.0001455862512,-0.0007809346425,0.0002799389767,-0.005844582338,0.003315184964,0.003675668733,0.001217402983,235.5006409,-235.2130585,235.8218842,-235.1763763,0,0,-1.5,0,0,0,0,0,0,0,0,0,1,0.5801653862,0.3929595947,-8.738406181,-0.006189422682,-0.003800659673,0.00507657649,1.50232017,101252.8984,3.5,70,-0.01158164814,-0.02989495918,-0.133742854,0.7273443937,0.8311826587,0.1303073019
4.014999866,-0.0005269944086,-0.0005007024738,-1.501394987,1.112868904e-05,0.0002097910619,-0.00014130825,-0.0007637249073,0.0002106583415,-0.006031342316,0.0007107581478,0.0008559503476,0.0017016083,235.6714172,-235.0618439,235.7687225,-235.0551453,0,0,-1.5,0,0,0,0,0,0,0,0,0,1,0.2088441551,0.04983564094,-9.219625473,-0.008790229447,-0.006638537161,0.002298494102,1.502399802,101252.8984,3.5,70,0.003441947047,-0.01385612693,-0.03735199571,-0.5208853483,-0.5639436841,0.09684106708
4.019999981,-0.0005308087566,-0.0004996429197,-1.501452804,1.814764801e-05,0.0001992319449,-0.0001505488472,-0.0007422859198,0.0003693928593,-0.00551375607,-0.002111624461,-0.001847824082,0.001404179493,235.7771149,-235.1357117,235.6422119,-235.1689606,0,0,-1.5,0,0,0,0,0,0,0,0,0,1,-0.06931446493,-0.2069950253,-9.581267357,-0.01160868909,-0.009359723888,0.0001694511011,1.502478361,101252.8984,3.5,70,0.004287797492,0.0317469053,0.1035172492,-0.5644765496,-0.5407549143,-0.05948576331
4.025000095,-0.0005345160607,-0.0004977905191,-1.501508594,8.65180391e-06,0.0001838172902,-0.0001646660821,-0.0006594763836,0.0006301058456,-0.00430067163,-0.003083215561,-0.002823824994,-0.001898606191,235.3068695,-235.8890228,235.0880737,-235.9288025,0,0,-1.5,0,0,0,0,0,0,0,0,0,1,-0.1735595018,-0.3032650054,-9.719124794,-0.01257892977,-0.0103420103,-0.0007051057764,1.502555847,101252.8984,3.5,70,0.01656190678,0.05214259773,0.2426168919,-0.19431822,-0.195200175,-0.6605570912
4.03000021,-0.0005378099158,-0.0004946360714,-1.501559019,-2.946585482e-06,0.0001833554852,-0.0001636829402,-0.0005544918822,0.0007954702014,-0.003068522085,-9.274428157e-05,0.0001962006063,-0.002319714054,235.2199249,-236.1252289,235.252121,-236.1195831,0,0,-1.5,0,0,0,0,0,0,0,0,0,1,0.1926572025,0.03504743427,-9.245833397,-0.009592615068,-0.007302535698,0.001914147288,1.502632141,101252.8984,3.5,70,0.02099690028,0.03307287022,0.2464299053,0.5980942249,0.6040050983,-0.08422157168
4.034999847,-0.0005405798438,-0.0004906558897,-1.50160408,-7.048338375e-07,0.0001790196548,-0.0001686793112,-0.0005365505931,0.0007250180352,-0.002799172187,-0.0008670930401,-0.0009991928237,0.0004485335667,235.8062134,-235.6160278,235.7562714,-235.6068573,0,0,-1.5,0,0,0,0,0,0,0,0,0,1,-0.01034104172,-0.1526762992,-9.51626873,-0.01036588755,-0.008505627513,0.0005255870055,1.502707362,101252.8984,3.5,70,0.003588257823,-0.01409043372,0.05386997759,-0.1548697501,-0.2390786707,0.5536495447
4.039999962,-0.0005432602484,-0.000487028301,-1.501648545,-7.961637039e-08,0.0001817488373,-0.0001656896929,-0.0006318570231,0.0005827883142,-0.003311930457,0.0005458571832,0.0005979451817,0.0001249364577,235.6099396,-235.6089325,235.6852112,-235.5913239,0,0,-1.5,0,0,0,0,0,0,0,0,0,1,0.2045698315,0.04593193904,-9.236237526,-0.008954901248,-0.006898203865,0.002254187595,1.50278163,101252.8906,3.5,70,-0.019061286,-0.02844594419,-0.102551654,0.2825900316,0.3194276094,-0.06471942365
4.045000076,-0.0005464167916,-0.0004841113405,-1.501696348,-1.556465577e-06,0.0001854652801,-0.0001657936955,-0.0006837889086,0.0004564214614,-0.003738082713,0.0003611874417,0.0004011250567,-0.0002954427619,235.4733734,-235.6238708,235.5328217,-235.611145,0,0,-1.5,0,0,0,0,0,0,0,0,0,1,0.1633379161,0.00779974414,-9.287128448,-0.009139314294,-0.00709629152,0.001922583207,1.502855062,101252.8906,3.5,70,-0.01038637757,-0.02527337149,-0.0852304548,-0.03693394735,-0.039364025,-0.08407584578
4.050000191,-0.00054983265,-0.0004818257585,-1.501746893,3.997541626e-06,0.0001868515246,-0.0001635844237,-0.000693187234,0.0004306321789,-0.003780375933,0.00027743174,0.0004420612822,0.001110719517,235.7249756,-235.3292694,235.7826385,-235.3229675,0,0,-1.5,0,0,0,0,0,0,0,0,0,1,0.1836385578,0.02660599723,-9.257967949,-0.00922295358,-0.007055091672,0.002065387322,1.502927661,101252.8906,3.5,70,-0.001879665069,-0.005157856271,-0.008458644152,-0.01675114036,0.008187245578,0.2812324464
4.054999828,-0.000553295482,-0.0004796690773,-1.501798153,3.359449693e-06,0.0001747633069,-0.0001756726706,-0.000674192037,0.0004734115209,-0.003523989115,-0.002417664276,-0.002417673822,-0.0001271666551,235.6199799,-235.5639496,235.4433441,-235.5875854,0,0,-1.5,0,0,0,0,0,0,0,0,0,1,-0.1770377904,-0.3066411912,-9.728245735,-0.01191430353,-0.009933243506,-0.0005825357512,1.502999306,101252.8906,3.5,70,0.003799039405,0.008555868641,0.05127736181,-0.5390191674,-0.5719470382,-0.2475772351
4.059999943,-0.0005566633772,-0.0004772989487,-1.501848698,-5.982984476e-06,0.000169801322,-0.0001796219876,-0.0006446039188,0.0005605391343,-0.003055393463,-0.000992725254,-0.0007901894278,-0.001868348802,235.2585602,-235.9469147,235.207016,-235.9556732,0,0,-1.5,0,0,0,0,0,0,0,0,0,1,0.04811041802,-0.09855800867,-9.43469429,-0.01049134508,-0.008295278065,0.001014564419,1.503069878,101252.8906,3.5,70,0.005917623639,0.01742552221,0.09371913224,0.2849878073,0.3254968524,-0.3482364416
4.065000057,-0.0005598836578,-0.0004744936305,-1.501897454,-7.830686627e-06,0.0001744239416,-0.0001742573804,-0.0005954473745,0.000540643814,-0.002756092232,0.0009244584362,0.001072859159,-0.0003697226057,235.4825897,-235.6968231,235.5897064,-235.6767578,0,0,-1.5,0,0,0,0,0,0,0,0,0,1,0.2506288886,0.08846506476,-9.171793938,-0.008576826192,-0.006420231424,0.002518367255,1.503139615,101252.8906,3.5,70,0.009831309319,-0.003979064059,0.05986024439,0.3834367394,0.3726097345,0.2997252345
4.070000172,-0.0005628584768,-0.0004717879929,-1.501945257,-2.761094493e-06,0.0001733115496,-0.0001755818521,-0.000606067304,0.0004400698235,-0.002953491174,-0.0002223018382,-0.0002647163346,0.001013964647,235.7636719,-235.3874512,235.7670135,-235.3785553,0,0,-1.5,0,0,0,0,0,0,0,0,0,1,0.06512313336,-0.08298590779,-9.414927483,-0.009721992537,-0.007766420953,0.00126038189,1.50320828,101252.8906,3.5,70,-0.002123985905,-0.0201147981,-0.03947978839,-0.229352057,-0.2675150931,0.2767374516
4.074999809,-0.0005658862065,-0.0004695850657,-1.501994491,-1.215498628e-06,0.0001752446842,-0.0001727286144,-0.0006589653785,0.0003843184677,-0.003280834993,0.000386681495,0.0005707020173,0.0003090202808,235.5478363,-235.4669952,235.6112366,-235.4599609,0,0,-1.5,0,0,0,0,0,0,0,0,0,1,0.1967326254,0.03869603574,-9.241440773,-0.00911385566,-0.006925622467,0.002257230459,1.50327599,101252.8906,3.5,70,-0.0105796149,-0.0111502707,-0.0654687658,0.1217966676,0.1670836657,-0.1409888715
4.079999924,-0.0005691781989,-0.000467660604,-1.50204587,-3.406013548e-06,0.0001664243464,-0.0001814715797,-0.0006428472116,0.0003966259246,-0.003154535312,-0.001764141838,-0.001748669543,-0.0004377965815,235.4972687,-235.5976715,235.372406,-235.6137695,0,0,-1.5,0,0,0,0,0,0,0,0,0,1,-0.107122004,-0.2420801073,-9.636181831,-0.01126168948,-0.009259930812,-4.914727469e-05,1.503342748,101252.8906,3.5,70,0.003223633394,0.002461491385,0.02525993623,-0.430164665,-0.4638743103,-0.1493633687
4.085000038,-0.0005723895738,-0.0004656748497,-1.502097011,-8.727542081e-06,0.0001566384017,-0.0001909104903,-0.0006123223575,0.0004645698937,-0.002781018615,-0.001957382308,-0.001887958031,-0.001063991571,235.410614,-235.7462769,235.2685089,-235.7646637,0,0,-1.5,0,0,0,0,0,0,0,0,0,1,-0.1107263044,-0.2453719825,-9.640817642,-0.01145466138,-0.00940011628,-9.38854937e-05,1.503408432,101252.8828,3.5,70,0.006104970817,0.01358879358,0.07470333576,-0.03864809498,-0.0278576985,-0.1252389997
4.090000153,-0.0005754485028,-0.0004633498029,-1.502146721,-1.734136094e-05,0.0001521845406,-0.0001953391329,-0.0005753074074,0.0004504802637,-0.002580058761,-0.0008911024197,-0.0008859987138,-0.001722625224,235.245697,-235.8938141,235.1875763,-235.8943481,0,0,-1.5,0,0,0,0,0,0,0,0,0,1,-0.008759547025,-0.151230514,-9.508789063,-0.01038986351,-0.00839170441,0.0006866543554,1.503473282,101252.8828,3.5,70,0.007402990013,-0.002817925997,0.04019197077,0.2132559717,0.2003918588,-0.1317267269
4.09499979,-0.000578322506,-0.0004610953911,-1.502195716,-2.276697705e-05,0.0001481400686,-0.0002002583642,-0.0005715404404,0.0003181877255,-0.002873356221,-0.0008091074997,-0.000984010403,-0.001084973337,235.3165588,-235.7300568,235.2551117,-235.7250824,0,0,-1.5,0,0,0,0,0,0,0,0,0,1,-0.05374063551,-0.1928865165,-9.567915916,-0.01030798256,-0.008490347303,0.0004195040674,1.50353694,101252.8828,3.5,70,0.0007533933967,-0.0264585074,-0.05865949392,0.01639898494,-0.01960233785,0.1275303811
4.099999905,-0.0005811773008,-0.0004595022474,-1.502246499,-2.582385969e-05,0.000144245394,-0.0002052269556,-0.0006169600529,0.0001211976705,-0.003660634393,-0.0007790584932,-0.0009938081494,-0.000611229334,235.3002167,-235.53479,235.2359772,-235.5320435,0,0,-1.5,0,0,0,0,0,0,0,0,0,1,-0.06968229264,-0.2076535672,-9.586754799,-0.01027797535,-0.008500208147,0.0004083345702,1.503599763,101252.8828,3.5,70,-0.009083922952,-0.03939801082,-0.1574556381,0.006009801291,-0.001959549263,0.09474880248
4.105000019,-0.0005842583487,-0.0004588935408,-1.502301455,-2.762271288e-05,0.0001567693253,-0.0001922752126,-0.0006485868362,-8.105503366e-05,-0.004535245243,0.002504713135,0.002590297488,-0.0003601441858,235.086441,-235.3859711,235.3085632,-235.3531799,0,0,-1.5,0,0,0,0,0,0,0,0,0,1,0.3805641532,0.2083604038,-8.994272232,-0.006998768076,-0.004893020727,0.003806016641,1.503661513,101252.8828,3.5,70,-0.006325356662,-0.04045053944,-0.1749221683,0.6567543149,0.7168210745,0.05021702871
4.110000134,-0.0005874969065,-0.0004592951736,-1.502360821,-2.866177601e-05,0.0001342298201,-0.0002179413132,-0.00063938729,-0.0002625826164,-0.005278138909,-0.004507941194,-0.005133253057,-0.0002070078626,235.3221741,-235.2170715,234.9228668,-235.2581787,0,0,-1.5,0,0,0,0,0,0,0,0,0,1,-0.642739296,-0.7372642159,-10.32615471,-0.01400167495,-0.01266631112,-0.003716808977,1.503722072,101252.8828,3.5,70,0.001839909237,-0.03630551696,-0.1485787332,-1.402530789,-1.54471004,0.03062726557
4.114999771,-0.0005906881415,-0.0004606044386,-1.502423882,-4.141194222e-05,0.000127960855,-0.0002242060291,-0.0006629824056,-0.000300509826,-0.005816871766,-0.001254349947,-0.001253285562,-0.002549865283,234.6421509,-235.6008911,234.5329437,-235.6196747,0,0,-1.5,0,0,0,0,0,0,0,0,0,1,-0.08699355274,-0.223583445,-9.595869064,-0.01075260621,-0.008761356585,0.0004186947772,1.503781557,101252.8828,3.5,70,-0.004719023127,-0.007585441694,-0.1077465713,0.6507182717,0.775993526,-0.4685714841
4.119999886,-0.0005939966068,-0.0004621031403,-1.502489328,-5.634160334e-05,0.0001311343949,-0.0002224773198,-0.0005654175766,-0.0004864931689,-0.006262819748,0.0006340390537,0.0003453589743,-0.002985976404,234.4070587,-235.639679,234.4406738,-235.6233063,0,0,-1.5,0,0,0,0,0,0,0,0,0,1,0.0283725448,-0.1172316968,-9.441958427,-0.008866841905,-0.007152416743,0.001288683503,1.503839612,101252.8828,3.5,70,0.01951296628,-0.03719666973,-0.08918959647,0.3776777983,0.3197289109,-0.08722222596
4.125,-0.0005968168844,-0.0004645313311,-1.502556682,-5.00946262e-05,0.0001440421474,-0.0002108626068,-0.000552563346,-0.0007846895605,-0.007431057747,0.002581829438,0.002323105931,0.001249090768,234.9806976,-234.6854858,235.1769409,-234.6486359,0,0,-1.5,0,0,0,0,0,0,0,0,0,1,0.2637941837,0.1002432406,-9.131531715,-0.006921758875,-0.005161933135,0.003189759096,1.503896356,101252.8828,3.5,70,0.002570846118,-0.0596392788,-0.2336475998,0.3895580769,0.3955493569,0.8470134735
4.130000114,-0.0005995720858,-0.0004684492887,-1.502629519,-4.068321141e-05,0.0001462311484,-0.0002104677988,-0.0006095463177,-0.001079922775,-0.009039408527,0.0004381965846,7.923376688e-05,0.001882271958,234.9928741,-234.3357239,235.0037231,-234.3316193,0,0,-1.5,0,0,0,0,0,0,0,0,0,1,-0.02267505787,-0.1644434184,-9.499341965,-0.009062412195,-0.007420255803,0.001262203557,1.50395155,101252.8828,3.5,70,-0.01139659435,-0.05904664099,-0.3216701448,-0.4287265837,-0.448774457,0.1266362369
4.135000229,-0.0006026105257,-0.0004738421703,-1.502709627,-3.9856488e-05,0.0001633291831,-0.000192138963,-0.0006073520053,-0.001153946389,-0.009856941178,0.003419640707,0.003665790427,0.0001648084726,234.4108124,-234.5523682,234.696579,-234.5306549,0,0,-1.5,0,0,0,0,0,0,0,0,0,1,0.487619251,0.3072237372,-8.824169159,-0.006085112225,-0.003810601775,0.004969321191,1.504005075,101252.8828,3.5,70,0.0004388624802,-0.01480472274,-0.1635065377,0.5962888002,0.7173113823,-0.3434926867
4.139999866,-0.0006056380225,-0.0004796037392,-1.502792954,-2.950929047e-05,0.0001640187693,-0.0001916685142,-0.0004861327761,-0.001097039087,-0.009725597687,0.0001383157651,9.44282292e-05,0.002069424372,234.9117432,-234.1569672,234.9126129,-234.1674194,0,0,-1.5,0,0,0,0,0,0,0,0,0,1,0.02493125387,-0.1203154698,-9.423668861,-0.009361876175,-0.007404963486,0.001443911693,1.504056811,101252.875,3.5,70,0.02424384654,0.01138146035,0.02626869828,-0.6562649608,-0.7142724395,0.3809231818
4.144999981,-0.0006080595194,-0.0004850808764,-1.502874851,-1.864248043e-05,0.0001740064326,-0.0001794877171,-0.0003972930135,-0.0008717571036,-0.009084837511,0.001997950254,0.002436514711,0.002172962762,234.8978882,-234.1856384,235.0766296,-234.1825409,0,0,-1.5,0,0,0,0,0,0,0,0,0,1,0.3998507857,0.226310879,-8.933398247,-0.007504826412,-0.005047793966,0.004213658627,1.504106641,101252.875,3.5,70,0.01776795276,0.04505639523,0.1281520426,0.3719269037,0.4684173167,0.02070767805
4.150000095,-0.0006100379396,-0.0004894317244,-1.502952576,-1.24755943e-05,0.0001850408735,-0.0001664190495,-0.000275280996,-0.0006324064452,-0.008045908995,0.002207108308,0.002613947494,0.001232922426,234.8072205,-234.4608459,235.0084076,-234.4481506,0,0,-1.5,0,0,0,0,0,0,0,0,0,1,0.4261835515,0.2506426573,-8.900996208,-0.007295959163,-0.00486921845,0.004289781675,1.504154444,101252.875,3.5,70,0.0244024042,0.04787013307,0.2077856958,0.04183161259,0.03548655659,-0.18800807
4.15500021,-0.0006114076823,-0.0004925862886,-1.503024459,1.628966857e-06,0.0001850253902,-0.0001647936151,-0.0001915606263,-0.0003260417143,-0.006746309344,-2.627187314e-06,0.000325608009,0.00282085198,235.3369598,-234.2663116,235.3551636,-234.2749481,0,0,-1.5,0,0,0,0,0,0,0,0,0,1,0.1739285588,0.01765667275,-9.234377861,-0.00950262323,-0.007172294892,0.002298616804,1.504200101,101252.875,3.5,70,0.01674407348,0.06127294526,0.2599199414,-0.4419471025,-0.4576678872,0.3175859153
4.159999847,-0.0006123599014,-0.0004942102823,-1.503089309,8.548870028e-06,0.0001805923093,-0.0001670446945,-0.0001474369637,4.732178058e-05,-0.005221243016,-0.0008863880066,-0.0004499601782,0.001384063973,235.2560272,-234.6860657,235.2086334,-234.7036285,0,0,-1.5,0,0,0,0,0,0,0,0,0,1,0.1217101961,-0.03047141992,-9.307764053,-0.01038515568,-0.007952857763,0.001841416932,1.50424397,101252.875,3.5,70,0.008824732155,0.07467269897,0.3050132692,-0.176752165,-0.1551136374,-0.2873575985
4.164999962,-0.0006130927359,-0.0004939689534,-1.503146172,3.399117759e-06,0.000173647757,-0.0001722339366,-7.694859232e-05,0.0004132004688,-0.003399050329,-0.001389083569,-0.001038035029,-0.001029763022,235.0064697,-235.3423157,234.9167328,-235.355957,0,0,-1.5,0,0,0,0,0,0,0,0,0,1,0.05134413019,-0.09548608214,-9.406074524,-0.01088715252,-0.008544719778,0.00115171785,1.504285932,101252.875,3.5,70,0.01409767382,0.07317573577,0.3644385338,-0.1005391106,-0.1176149696,-0.4827654064
4.170000076,-0.0006134745781,-0.0004919000203,-1.503193736,5.376050467e-06,0.0001738206774,-0.0001702333975,-4.373419506e-05,0.0006729558227,-0.001878499635,3.465238842e-05,0.0004001760972,0.0003953170963,235.3771667,-235.2420502,235.4108429,-235.2314606,0,0,-1.5,0,0,0,0,0,0,0,0,0,1,0.2302088886,0.06975989044,-9.180356026,-0.009465395473,-0.007097246591,0.002389172092,1.504326224,101252.875,3.5,70,0.006642879453,0.05195106938,0.3041101396,0.2847471833,0.2876422405,0.2850160301
4.175000191,-0.0006136916927,-0.0004885336384,-1.503233552,8.029222954e-06,0.0001658117835,-0.000177872731,-7.186319272e-05,0.0007865662919,-0.0009906091727,-0.001601688098,-0.001527774264,0.000530899968,235.5677185,-235.2989349,235.4546814,-235.299118,0,0,-1.5,0,0,0,0,0,0,0,0,0,1,-0.04156268761,-0.1814312935,-9.541989326,-0.01109946147,-0.009037612937,0.0004412418639,1.504364967,101252.875,3.5,70,-0.005625799298,0.02272209339,0.1775780916,-0.3272680938,-0.3855900764,0.02711657435
4.179999828,-0.0006140501355,-0.0004845999938,-1.503269076,2.816364486e-06,0.0001601753756,-0.0001825661893,-0.0001530264271,0.0008559733396,-0.0005101882271,-0.001127466327,-0.0009388656472,-0.001042416086,235.2870331,-235.6469574,235.218689,-235.6448669,0,0,-1.5,0,0,0,0,0,0,0,0,0,1,0.04071168229,-0.1053857952,-9.438211441,-0.01062589884,-0.0084449118,0.001024751575,1.504402399,101252.875,3.5,70,-0.016232647,0.01388140954,0.0960841924,0.09484435618,0.1177817211,-0.3146632016
4.184999943,-0.0006148148095,-0.0004803197226,-1.503302217,6.495206435e-07,0.0001604303397,-0.0001812198316,-0.0002013922058,0.0008632629178,-0.0001544863335,5.091446292e-05,0.0002692020498,-0.0004334119149,235.3817139,-235.570343,235.4143677,-235.5539246,0,0,-1.5,0,0,0,0,0,0,0,0,0,1,0.1681978256,0.01234512217,-9.273552895,-0.009449156001,-0.007229064126,0.001933544758,1.504438639,101252.875,3.5,70,-0.009673155844,0.001457915641,0.07114037871,0.2356761545,0.2416135222,0.1218008325
4.190000057,-0.0006158216274,-0.0004760032753,-1.503333688,3.631521167e-06,0.0001633561915,-0.0001827136584,-0.0002459341194,0.0008233846165,-1.069440532e-05,7.483613444e-05,0.0002538937551,0.0005963593721,235.5856934,-235.3799133,235.6197205,-235.3624725,0,0,-1.5,0,0,0,0,0,0,0,0,0,1,0.1476251334,-0.006709142588,-9.301719666,-0.009425267577,-0.007244470995,0.001843383536,1.504473805,101252.875,3.5,70,-0.008908382617,-0.007975660264,0.02875838615,0.004784334451,-0.003061658936,0.2059542537
4.195000172,-0.0006170513225,-0.0004718863347,-1.503364563,4.801406703e-06,0.0001597852533,-0.0001852862042,-0.000309275114,0.0007892755675,-3.990784535e-05,-0.0007141454262,-0.0005144709721,0.0002340611536,235.5372314,-235.4285126,235.5062561,-235.4246368,0,0,-1.5,0,0,0,0,0,0,0,0,0,1,0.05164696276,-0.09537730366,-9.427368164,-0.01021315251,-0.008017783985,0.001159867388,1.504507899,101252.875,3.5,70,-0.01266819891,-0.006821809802,-0.005842688028,-0.1577963084,-0.1536729485,-0.07245964557
4.199999809,-0.0006185976672,-0.0004679399426,-1.503395677,2.52865857e-06,0.0001544157858,-0.0001893239241,-0.0003426505136,0.000803826726,0.0001181683983,-0.001073976862,-0.0008076176746,-0.0004544205731,235.427536,-235.5657196,235.3683167,-235.5695496,0,0,-1.5,0,0,0,0,0,0,0,0,0,1,0.01764817908,-0.1267725676,-9.471245766,-0.01057248376,-0.008312818594,0.0008721287013,1.50454092,101252.875,3.5,70,-0.006675079931,0.002910231706,0.03161524981,-0.07196629047,-0.05862934142,-0.1376963407
4.204999924,-0.0006203110679,-0.0004639209074,-1.503425956,6.861456541e-07,0.0001559070806,-0.0001858776668,-0.0003388766781,0.0008272213163,0.0004354119883,0.0002981899597,0.0006891934318,-0.0003686090349,235.4096985,-235.5850983,235.4707794,-235.5741119,0,0,-1.5,0,0,0,0,0,0,0,0,0,1,0.2034809738,0.04492608458,-9.228869438,-0.009202224202,-0.006806368008,0.002230827231,1.504572749,101252.875,3.5,70,0.0007547670975,0.004678918049,0.06344871968,0.2744333446,0.2993622422,0.0171623081
4.210000038,-0.0006220058422,-0.0004597851366,-1.503454804,2.720129487e-06,0.0001537672943,-0.0001867366518,-0.0003350287443,0.0008095900412,0.0006262017996,-0.0004278808774,-0.0001717335399,0.0004068235867,235.6044617,-235.4465332,235.599762,-235.4411926,0,0,-1.5,0,0,0,0,0,0,0,0,0,1,0.07682880759,-0.07214571536,-9.395449638,-0.009927285835,-0.007672839332,0.001321318792,1.504603624,101252.875,3.5,70,0.000769586768,-0.003526255023,0.03815796226,-0.1452141702,-0.1721853912,0.1550865173
4.215000153,-0.0006236815825,-0.0004557376669,-1.503482699,3.269891295e-06,0.0001491105068,-0.0001899050258,-0.0003643236123,0.0008053597412,0.0006840591086,-0.0009313356131,-0.0006336577353,0.0001100497902,235.5670166,-235.49617,235.5212097,-235.5,0,0,-1.5,0,0,0,0,0,0,0,0,0,1,0.02975035831,-0.1156105027,-9.457467079,-0.01043004077,-0.008137738332,0.0009954504203,1.504633427,101252.875,3.5,70,-0.0058589736,-0.0008460599929,0.01157146133,-0.1006909385,-0.09238483757,-0.05935475975
4.21999979,-0.0006255038898,-0.0004517113848,-1.503510237,3.565573934e-07,0.0001483397791,-0.0001887268008,-0.0003716414794,0.0008162104641,0.0008557970868,-0.0001542560931,0.0002355595352,-0.0005827018758,235.4103088,-235.6447906,235.4332123,-235.6412354,0,0,-1.5,0,0,0,0,0,0,0,0,0,1,0.1403653473,-0.01340025011,-9.312901497,-0.00965404138,-0.007262923289,0.001788212918,1.504662275,101252.875,3.5,70,-0.001463573426,0.00217014458,0.03434759378,0.1554158926,0.1738434583,-0.1385503262
4.224999905,-0.000627362926,-0.0004476309696,-1.503537059,5.731441206e-07,0.0001462514047,-0.0001892688742,-0.0003577914031,0.0008145343163,0.001082076808,-0.0004176677612,-0.0001084081523,4.333342804e-05,235.5599213,-235.5429993,235.5575867,-235.5401154,0,0,-1.5,0,0,0,0,0,0,0,0,0,1,0.08458904177,-0.06497062743,-9.386240959,-0.009917086922,-0.007609106135,0.001368628,1.504690051,101252.8672,3.5,70,0.002770015271,-0.0003352295607,0.04525594413,-0.05268233269,-0.06879353523,0.1252070665
4.230000019,-0.000629152928,-0.0004435590818,-1.503562808,8.97136772e-07,0.0001404031354,-0.000193794709,-0.0003677784989,0.0008083818248,0.001183307148,-0.001169640222,-0.000905156543,6.493090768e-05,235.6008911,-235.5378418,235.5327759,-235.5440826,0,0,-1.5,0,0,0,0,0,0,0,0,0,1,-0.01411310118,-0.1561629027,-9.515896797,-0.01066801418,-0.008410985582,0.0006739983801,1.504716754,101252.8672,3.5,70,-0.001997419167,-0.00123049831,0.02024606802,-0.1503944844,-0.1593496799,0.004319495987
4.235000134,-0.0006309929886,-0.0004395180149,-1.503587961,-3.098069783e-06,0.0001383527124,-0.000194118169,-0.00037684376,0.0008017774089,0.001268171472,-0.0004102403764,-6.480457523e-05,-0.0007990322192,235.4029846,-235.7104187,235.4008942,-235.7094116,0,0,-1.5,0,0,0,0,0,0,0,0,0,1,0.09408397973,-0.0561853908,-9.37471962,-0.009909669869,-0.007565221749,0.001471126219,1.504742503,101252.8672,3.5,70,-0.001813052222,-0.001320883166,0.01697286591,0.1518799663,0.1680703908,-0.1727926284
4.239999771,-0.0006328784511,-0.00043551001,-1.503612757,-6.566954653e-06,0.0001335654088,-0.0002047500893,-0.0003684926778,0.0007665560697,0.00133350899,-0.001596352551,-0.001447453629,-0.0006935768179,235.4753876,-235.6882935,235.3640289,-235.6956329,0,0,-1.5,0,0,0,0,0,0,0,0,0,1,-0.1021547094,-0.2375642359,-9.631165504,-0.01109413337,-0.008956775069,1.634768341e-05,1.504767299,101252.8672,3.5,70,0.001670216443,-0.007044267841,0.01306750346,-0.2372224331,-0.2765298188,0.0210910812
4.244999886,-0.000634722237,-0.0004316781124,-1.503637195,-1.175836951e-05,0.0001243797014,-0.0002133086673,-0.0003839915153,0.0007141774986,0.001218555029,-0.00183735427,-0.001711853081,-0.001038054237,235.3982391,-235.7347717,235.262207,-235.7454529,0,0,-1.5,0,0,0,0,0,0,0,0,0,1,-0.1371966302,-0.2699464858,-9.676935196,-0.01133480016,-0.009222877212,-0.0001940976363,1.504791021,101252.8672,3.5,70,-0.003099767491,-0.01047571376,-0.02299079299,-0.0482003428,-0.05287989229,-0.06889548153
4.25,-0.0006366434391,-0.0004281079746,-1.503662109,-2.506322198e-05,0.0001070183862,-0.0002314131707,-0.0003925953642,0.0006005720352,0.0009031246882,-0.003472830169,-0.003621231765,-0.002660520142,235.1144257,-236.000946,234.8241119,-236.0258484,0,0,-1.5,0,0,0,0,0,0,0,0,0,1,-0.4128809869,-0.524763763,-10.03623581,-0.01296800282,-0.01114455238,-0.002189289778,1.50481379,101252.8672,3.5,70,-0.001720769797,-0.02272109315,-0.06308607012,-0.3270951807,-0.3818757236,-0.3244931698
4.255000114,-0.0006386073655,-0.0004251055361,-1.503688455,-3.580054545e-05,0.0001159584572,-0.0002213943808,-0.000412066991,0.0004020223278,0.0002135190007,0.001787516987,0.002003527014,-0.002147679217,234.8920746,-235.8508606,235.0534821,-235.819931,0,0,-1.5,0,0,0,0,0,0,0,0,0,1,0.2879699469,0.1227737591,-9.118985176,-0.007714967243,-0.005483570043,0.003055794397,1.504835606,101252.8672,3.5,70,-0.003894325346,-0.03970994055,-0.1379211396,1.052069426,1.124951839,0.1025681868
4.260000229,-0.0006406678585,-0.0004230954801,-1.503718138,-3.283103797e-05,0.0001199909166,-0.0002183477918,-0.0004235001397,4.510290455e-05,-0.001031156979,0.0008066230221,0.0006093858974,0.0005938309478,235.3137512,-235.1725616,235.3747559,-235.1473389,0,0,-1.5,0,0,0,0,0,0,0,0,0,1,0.03800332919,-0.1083902046,-9.442005157,-0.008694497868,-0.006886689458,0.001371947583,1.504856348,101252.8672,3.5,70,-0.002286629751,-0.07138388604,-0.2489351928,-0.1961787939,-0.2788282335,0.5483019948
4.264999866,-0.0006427842309,-0.0004228692851,-1.503753543,-3.270468005e-05,0.0001050558421,-0.0002347924019,-0.0005062256241,-0.0002216220018,-0.002510273596,-0.002987009473,-0.003288920037,2.566637704e-05,235.1892853,-235.0726776,234.9219055,-235.1019287,0,0,-1.5,0,0,0,0,0,0,0,0,0,1,-0.4345412254,-0.5449392796,-10.05294609,-0.01248285733,-0.01081010047,-0.001985111041,1.504875898,101252.8672,3.5,70,-0.01654509641,-0.05334497988,-0.2958233356,-0.7587265372,-0.7796611786,-0.1136329174
4.269999981,-0.0006453124224,-0.0004239759874,-1.503795624,-4.59541443e-05,0.0001081303926,-0.0002306658716,-0.000517644221,-0.0003531035909,-0.003429018892,0.0006142880884,0.0008250284009,-0.002649979666,234.3949127,-235.4863129,234.4446411,-235.486496,0,0,-1.5,0,0,0,0,0,0,0,0,0,1,0.1120408252,-0.03982644528,-9.331504822,-0.008886565454,-0.006669658236,0.002026002156,1.504894376,101252.8672,3.5,70,-0.002283719368,-0.02629631758,-0.1837490648,0.7202594876,0.822789669,-0.5351291895
4.275000095,-0.0006478967844,-0.000425739534,-1.503841639,-4.898122643e-05,0.0001165755457,-0.0002222632174,-0.0004060522188,-0.0005291259149,-0.003946390934,0.001688890741,0.001680464717,-0.0006055978592,234.6686096,-235.0364838,234.7980804,-235.0153198,0,0,-1.5,0,0,0,0,0,0,0,0,0,1,0.1625576317,0.006686340086,-9.26072216,-0.007813456468,-0.005808712915,0.002403627383,1.504911304,101252.8672,3.5,70,0.02231840044,-0.03520446643,-0.1034744084,0.2149205208,0.171087265,0.4088763595
4.28000021,-0.0006499227602,-0.000428382773,-1.503889322,-3.405231473e-05,0.0001339238224,-0.0002038960665,-0.0003875138354,-0.0007186473231,-0.004906000569,0.003470319556,0.003673777217,0.00298535428,235.1569824,-234.2256317,235.4454803,-234.1913147,0,0,-1.5,0,0,0,0,0,0,0,0,0,1,0.4369585514,0.260281682,-8.899233818,-0.006034503691,-0.003802563529,0.004599968437,1.504926801,101252.8672,3.5,70,0.00370767666,-0.03790428117,-0.1919219196,0.3562857509,0.3986625075,0.7181904316
4.284999847,-0.0006518554292,-0.0004319726722,-1.503940821,-2.718142423e-05,0.0001251733775,-0.0002131909132,-0.0003865211038,-0.0008071096963,-0.005686270539,-0.001749809366,-0.001858784934,0.001374426996,234.974823,-234.3909912,234.8126526,-234.4195099,0,0,-1.5,0,0,0,0,0,0,0,0,0,1,-0.2543426752,-0.3784311712,-9.797058105,-0.01124737691,-0.009370755404,-0.0004642938438,1.504940629,101252.8672,3.5,70,0.0001985463314,-0.01769247465,-0.1560539901,-1.044025779,-1.106512427,-0.3221854568
4.289999962,-0.0006537821027,-0.0004360046005,-1.503995061,-3.669742e-05,0.000112979702,-0.0002244458883,-0.0003368191537,-0.0006444972823,-0.00547507545,-0.002439141506,-0.002251232509,-0.001902917284,234.3780212,-235.0202942,234.1656647,-235.0645905,0,0,-1.5,0,0,0,0,0,0,0,0,0,1,-0.2381061912,-0.3632431328,-9.771404266,-0.01193575095,-0.009765730239,-0.0005164354807,1.504952669,101252.8672,3.5,70,0.009940389544,0.03252248466,0.04223901778,-0.1378664225,-0.07848951221,-0.6554688215
4.295000076,-0.0006554601714,-0.0004392239207,-1.504047036,-4.592448386e-05,0.0001142368419,-0.0002221984905,-0.0001877304894,-0.0005110711791,-0.004739302676,0.0002510134364,0.0004492717271,-0.001845463761,234.3396454,-235.1048737,234.3512878,-235.1070099,0,0,-1.5,0,0,0,0,0,0,0,0,0,1,0.07955615222,-0.06981000304,-9.356822014,-0.009249335155,-0.007047834806,0.00175414863,1.504962921,101252.8672,3.5,70,0.02981773205,0.02668522112,0.1471545547,0.538030982,0.5401008129,0.01149070449
4.300000191,-0.0006563936477,-0.0004417765304,-1.504094362,-4.312058081e-05,0.0001250926725,-0.0002111987851,-0.0001004456717,-0.0005735619343,-0.004680031911,0.002171290107,0.002200003946,0.00056052953,234.7138824,-234.6539917,234.880722,-234.6234741,0,0,-1.5,0,0,0,0,0,0,0,0,0,1,0.2648093998,0.101238735,-9.117726326,-0.007331727538,-0.005285827909,0.003244400024,1.504971147,101252.8672,3.5,70,0.01745696366,-0.01249815151,0.01185415313,0.3840553463,0.3501464427,0.4811986387
4.304999828,-0.0006568910321,-0.000444641395,-1.504140377,-3.225739783e-05,0.000133888956,-0.0002024422574,-0.0001477480982,-0.0007304533501,-0.005489066709,0.001759716542,0.001751576085,0.002172417939,234.9373932,-234.2290192,235.0703735,-234.2073517,0,0,-1.5,0,0,0,0,0,0,0,0,0,1,0.2112573236,0.05176356062,-9.187354088,-0.007742729038,-0.005737143569,0.002968070097,1.504977584,101252.8672,3.5,70,-0.00946048554,-0.0313782841,-0.1618069559,-0.08231471479,-0.08968557417,0.3223776817
4.309999943,-0.0006576243322,-0.0004482899676,-1.504189253,-2.541527283e-05,0.000136854811,-0.0001987609139,-0.0001921050716,-0.0007542567328,-0.00598431658,0.0005934477667,0.0007364531048,0.001368326368,234.7619781,-234.2941895,234.8049011,-234.2958832,0,0,-1.5,0,0,0,0,0,0,0,0,0,1,0.1157188043,-0.03640992567,-9.307684898,-0.008907376789,-0.006758803967,0.002236677101,1.504982114,101252.8672,3.5,70,-0.008871395141,-0.004760676529,-0.09904997051,-0.2332537472,-0.203024596,-0.1608183086
4.315000057,-0.0006585789961,-0.0004520571383,-1.504239202,-2.451387991e-05,0.0001346402569,-0.0001997860963,-0.0001428155374,-0.0006015790859,-0.00554764783,-0.0004428764514,-0.0002050114417,0.000180306728,234.6124573,-234.547348,234.5731812,-234.5632782,0,0,-1.5,0,0,0,0,0,0,0,0,0,1,0.0228875149,-0.1221050099,-9.425941467,-0.009942260571,-0.007706331555,0.001426415169,1.504984617,101252.8672,3.5,70,0.00985790696,0.0305355303,0.08733375371,-0.2072648406,-0.1882929057,-0.2376039326
4.320000172,-0.0006592876161,-0.0004550612939,-1.504285812,-2.445593782e-05,0.0001311992091,-0.0002020569955,-5.062791024e-05,-0.0003924712073,-0.004628251307,-0.0006882083835,-0.0004541770613,1.164939022e-05,234.6817932,-234.6717529,234.6223145,-234.6855316,0,0,-1.5,0,0,0,0,0,0,0,0,0,1,0.002636647783,-0.1407910734,-9.453813553,-0.01018725149,-0.0079571018,0.001199490158,1.504985332,101252.8672,3.5,70,0.01843752526,0.04182157665,0.183879301,-0.04906638712,-0.04983312637,-0.03373146802
4.324999809,-0.0006595361046,-0.000457020622,-1.504326701,-2.658836456e-05,0.0001273602102,-0.0002052876516,1.118623732e-05,-0.0002519768314,-0.003887252416,-0.000767884776,-0.0006461871671,-0.0004264006857,234.6751556,-234.8323212,234.6046753,-234.8394775,0,0,-1.5,0,0,0,0,0,0,0,0,0,1,-0.02797933668,-0.169107765,-9.497579575,-0.01026681717,-0.00815034844,0.0009669351857,1.504983902,101252.8672,3.5,70,0.01236283034,0.02809887566,0.1481997818,-0.01593527943,-0.03840202093,-0.08761001378
4.329999924,-0.000659476209,-0.0004582780239,-1.504362702,-2.837784632e-05,0.0001350018574,-0.0002084879816,1.819143654e-05,-0.000210264785,-0.003585963743,0.0004162427213,0.000546042982,-0.0003579658223,234.6606293,-234.8535004,234.690094,-234.8416443,0,0,-1.5,0,0,0,0,0,0,0,0,0,1,0.1160157323,-0.03608679771,-9.312495232,-0.009084335528,-0.006950440351,0.002035181271,1.504980445,101252.8672,3.5,70,0.001401039888,0.008342409506,0.06025773287,0.2368255109,0.238446027,0.01368697267
4.335000038,-0.0006593815633,-0.0004593269259,-1.504396319,-2.65528688e-05,0.0001342993346,-0.0002092207433,-3.620589268e-06,-0.0002432562032,-0.003627252998,-0.0001404281502,-0.0001465025853,0.0003650153521,234.8100586,-234.6977386,234.7880249,-234.6899414,0,0,-1.5,0,0,0,0,0,0,0,0,0,1,0.009921727702,-0.1341670156,-9.452075958,-0.00964023266,-0.007647445891,0.001281401375,1.5049752,101252.8672,3.5,70,-0.004362405278,-0.006598283537,-0.008257851005,-0.1113341749,-0.1385091096,0.144596234
4.340000153,-0.0006593958824,-0.0004605407594,-1.504428983,-2.543346818e-05,0.0001416785526,-0.0002116620599,-4.232709762e-05,-0.0002666192304,-0.003772948636,0.0004617022933,0.0005925137666,0.0002238004236,234.7291718,-234.6992493,234.7631531,-234.6872406,0,0,-1.5,0,0,0,0,0,0,0,0,0,1,0.1116129458,-0.04017845169,-9.318614006,-0.009038939141,-0.006903670263,0.002059993334,1.504968166,101252.8672,3.5,70,-0.007741301786,-0.004672605544,-0.02913912758,0.1204260886,0.1478032619,-0.02824298665
4.34499979,-0.0006596035673,-0.0004618711828,-1.504461169,-2.629752453e-05,0.0001371561084,-0.0002160813892,-5.070545376e-05,-0.0002739109041,-0.003795327153,-0.000904525572,-0.0008838907816,-0.0001726859482,234.7004547,-234.7551575,234.615097,-234.7584839,0,0,-1.5,0,0,0,0,0,0,0,0,0,1,-0.08781145513,-0.2244691253,-9.578020096,-0.01040326804,-0.008389582857,0.000568859512,1.504959226,101252.8672,3.5,70,-0.001675671199,-0.001458334737,-0.004475703463,-0.273245573,-0.2952809036,-0.07929727435
4.349999905,-0.0006598530454,-0.0004632381315,-1.504492521,-2.814402615e-05,0.0001404064969,-0.0002205049241,-5.127451004e-05,-0.0002475654765,-0.003713246202,-0.0001795580465,-7.333966096e-06,-0.0003692994942,234.6288757,-234.796936,234.6091309,-234.7935181,0,0,-1.5,0,0,0,0,0,0,0,0,0,1,0.03295500949,-0.1128513515,-9.419748306,-0.009679308161,-0.007507381029,0.001452975092,1.504948497,101252.8672,3.5,70,-0.0001138112566,0.005269085523,0.01641619019,0.1449934989,0.1753113568,-0.0393227078
4.355000019,-0.0006601053756,-0.0004644733563,-1.504522204,-2.914185279e-05,0.0001496583864,-0.0002237340086,-3.409967758e-05,-0.0002610206138,-0.003675713437,0.0005624801852,0.0007317726268,-0.0001996679348,234.6248169,-234.7669678,234.6669312,-234.7506866,0,0,-1.5,0,0,0,0,0,0,0,0,0,1,0.1086507365,-0.04295722395,-9.320892334,-0.008938301355,-0.006763514597,0.002027664101,1.50493598,101252.8672,3.5,70,0.003434966551,-0.002691027476,0.007506553084,0.148407653,0.1478213221,0.03392631188
4.360000134,-0.0006602717913,-0.0004657756945,-1.504550576,-2.611255695e-05,0.0001525508997,-0.0002199694281,-3.496624413e-05,-0.0002962979197,-0.003795131808,0.0005786396214,0.0007530078292,0.000605746638,234.7564545,-234.5889435,234.8007965,-234.5736084,0,0,-1.5,0,0,0,0,0,0,0,0,0,1,0.1063539907,-0.04509017617,-9.323703766,-0.008922164328,-0.006742142607,0.002038101433,1.504921436,101252.8672,3.5,70,-0.0001733133104,-0.007055461407,-0.02388367429,0.00323188724,0.004247040488,0.1610829085
4.364999771,-0.0006604425143,-0.0004672542855,-1.504578352,-2.327816401e-05,0.0001509385474,-0.0002206118952,-4.869135228e-05,-0.0003063394979,-0.003935506102,-0.0003223457315,-0.0001284057216,0.0005668982049,234.7635956,-234.5629578,234.7332153,-234.5614929,0,0,-1.5,0,0,0,0,0,0,0,0,0,1,-0.0007581458776,-0.1440382898,-9.462683678,-0.009821897373,-0.007629232481,0.001263844199,1.504905105,101252.8672,3.5,70,-0.0027450216,-0.002008315641,-0.02807485871,-0.1801970601,-0.1762827188,-0.007769686636
4.369999886,-0.0006606816896,-0.0004687829933,-1.504605651,-2.096518983e-05,0.0001627266029,-0.0002060391416,-3.879732685e-05,-0.0002610620868,-0.003827995853,0.002357713645,0.002914621728,0.0004621549742,234.6283569,-234.5975647,234.8395233,-234.5717773,0,0,-1.5,0,0,0,0,0,0,0,0,0,1,0.4042927027,0.2302798927,-8.932557106,-0.007145563141,-0.004566607997,0.00422663521,1.504886866,101252.8672,3.5,70,0.001978805056,0.009055482224,0.02150204964,0.5360118747,0.6086054444,-0.02094864659
4.375,-0.0006608717376,-0.000470085186,-1.504631162,-1.395184427e-05,0.0001591145701,-0.00020843948,5.611156666e-06,-0.0002045951987,-0.003506789217,-0.0007221174892,-0.0004798392474,0.001402747235,234.9750977,-234.4282684,234.9176636,-234.4324188,0,0,-1.5,0,0,0,0,0,0,0,0,0,1,-0.04549949989,-0.1853696704,-9.520275116,-0.01022111345,-0.007982929237,0.0008719799225,1.504866838,101252.8672,3.5,70,0.0088816965,0.01129337773,0.06424132735,-0.6159662008,-0.6788921952,0.1881184578
4.380000114,-0.0006608400145,-0.0004711053625,-1.504653811,-1.363516094e-05,0.000147247134,-0.0002185626217,6.462525562e-06,-4.71664971e-05,-0.0030324033,-0.002373473952,-0.002024619374,6.365886657e-05,234.8358002,-234.7185211,234.6429291,-234.7463531,0,0,-1.5,0,0,0,0,0,0,0,0,0,1,-0.1976105422,-0.3257936537,-9.720098495,-0.01187017467,-0.009537657723,-0.0002758713381,1.504844785,101252.8672,3.5,70,0.0001702737791,0.0314857401,0.09487718344,-0.3302713037,-0.308956027,-0.2678176761
4.385000229,-0.0006608043914,-0.0004713389499,-1.504672885,-2.208419573e-05,0.0001517248456,-0.0002110780624,5.171510202e-05,9.569005488e-05,-0.00233053579,0.0008951732889,0.001496662153,-0.00169002742,234.429184,-235.151886,234.5210571,-235.1404724,0,0,-1.5,0,0,0,0,0,0,0,0,0,1,0.2478493154,0.08579777181,-9.140195847,-0.008606070653,-0.005993699189,0.002935287775,1.504820824,101252.8672,3.5,70,0.00905051548,0.02857131138,0.1403734982,0.6537294388,0.7042562962,-0.3507372439
4.389999866,-0.00066054333,-0.0004708587367,-1.504687428,-1.947680721e-05,0.0001523443498,-0.0002091696224,0.0001055378671,0.00010813689,-0.001885036589,0.0001240103302,0.0003817678662,0.0005214197445,234.9365387,-234.7773743,234.9518585,-234.7635956,0,0,-1.5,0,0,0,0,0,0,0,0,0,1,0.06016507,-0.08775499463,-9.388504028,-0.009376161732,-0.007115773391,0.001546243788,1.504794955,101252.8672,3.5,70,0.01076455321,0.002489367034,0.08909983933,-0.1542325914,-0.2229788601,0.442289412
4.394999981,-0.0006600136403,-0.0004703166196,-1.504698753,-1.367716141e-05,0.0001524445397,-0.00021967676,4.954992983e-05,8.82318418e-05,-0.002022757661,-0.001127471915,-0.0008736025775,0.001160062151,235.0953369,-234.6247711,235.0048676,-234.6272736,0,0,-1.5,0,0,0,0,0,0,0,0,0,1,-0.0814851746,-0.2185878754,-9.575429916,-0.01062590443,-0.008379228413,0.000604880508,1.504767418,101252.8672,3.5,70,-0.01119758748,-0.003981009591,-0.02754421532,-0.2502964437,-0.2510740757,0.1277284771
4.400000095,-0.0006597636384,-0.0004698739212,-1.504709601,-1.526591404e-05,0.0001684612944,-0.0001999210799,1.19338165e-05,9.559307364e-05,-0.002066217363,0.003203282366,0.003951086663,-0.0003183528315,234.6117401,-234.9190369,234.9072266,-234.8809509,0,0,-1.5,0,0,0,0,0,0,0,0,0,1,0.548451364,0.3635177016,-8.751776695,-0.006301169749,-0.00352346804,0.005233760923,1.504737973,101252.8672,3.5,70,-0.007523222361,0.001472246367,-0.008691940457,0.866150856,0.9649378061,-0.2956829965
4.40500021,-0.0006597018801,-0.0004693942028,-1.504719615,-3.948252015e-06,0.0001745171903,-0.0001914778841,4.696454926e-05,0.0001090520527,-0.001793333911,0.001211633207,0.001689019264,0.002263247967,235.224762,-234.4399719,235.3474274,-234.4198456,0,0,-1.5,0,0,0,0,0,0,0,0,0,1,0.2315319926,0.07061145455,-9.165442467,-0.008290050551,-0.005800103303,0.002823747927,1.504706979,101252.8672,3.5,70,0.007006146014,0.002691795817,0.05457669124,-0.3983298242,-0.4524134994,0.516320169
4.409999847,-0.0006594653241,-0.0004688473709,-1.504727125,1.35129676e-05,0.0001816348085,-0.0001799547608,2.335563113e-05,0.0002701660851,-0.001336117042,0.001424191054,0.002305234782,0.003491841489,235.5003204,-234.2403107,235.6618958,-234.2302856,0,0,-1.5,0,0,0,0,0,0,0,0,0,1,0.3798671067,0.2078691274,-8.972746849,-0.008077788167,-0.005179919302,0.003942731768,1.504674077,101252.8672,3.5,70,-0.004721783567,0.03222280741,0.09144337475,0.04251156747,0.1232431009,0.2457187027
4.414999962,-0.0006593473372,-0.0004674953234,-1.504731417,1.459940722e-05,0.0001703032613,-0.0001878084586,6.409008347e-05,0.0005512214266,-0.0001749107469,-0.002266270341,-0.001570699038,0.0002175732516,235.1667786,-234.9750366,235.0149536,-235.0040436,0,0,-1.5,0,0,0,0,0,0,0,0,0,1,-0.09820900112,-0.2338212729,-9.599267006,-0.01176312007,-0.009080814198,0.0002737657342,1.504639626,101252.875,3.5,70,0.008146890439,0.05621106923,0.232241258,-0.7380923033,-0.7751867771,-0.654853642
4.420000076,-0.0006590267876,-0.0004647390742,-1.504728913,1.427923235e-05,0.0001749215589,-0.0001774146513,0.0001295641268,0.0009311583126,0.001563256723,0.0009236489423,0.002078750404,-6.438908167e-05,235.1682739,-235.2467041,235.306366,-235.2407227,0,0,-1.5,0,0,0,0,0,0,0,0,0,1,0.4168848395,0.2422517836,-8.931812286,-0.00857763458,-0.005407862365,0.003869459732,1.504603386,101252.875,3.5,70,0.01309480891,0.07598737627,0.3476335108,0.6379838586,0.7298898697,-0.05639246851
4.425000191,-0.0006583803915,-0.0004600846441,-1.504716992,1.973724102e-05,0.0001624091237,-0.0001870847773,0.0002019844251,0.001175530138,0.003136295127,-0.002502293792,-0.001933834748,0.001091939979,235.7295074,-235.196991,235.5604858,-235.2120056,0,0,-1.5,0,0,0,0,0,0,0,0,0,1,-0.1383278072,-0.270893991,-9.665370941,-0.01199881546,-0.009446288459,-0.0002509313636,1.504565597,101252.875,3.5,70,0.01448406,0.0488743633,0.3146076798,-0.6851885319,-0.8025170565,0.2312658131
4.429999828,-0.0006573735154,-0.0004542095121,-1.504696727,1.492078809e-05,0.0001513973257,-0.0001945304975,0.0001554151968,0.001378310844,0.004175429698,-0.002202540869,-0.001489300397,-0.0009630487766,235.4454193,-235.717392,235.3075562,-235.7306213,0,0,-1.5,0,0,0,0,0,0,0,0,0,1,-0.04599912837,-0.1854928583,-9.552316666,-0.01169947907,-0.008998891339,0.000432913308,1.504526377,101252.875,3.5,70,-0.009313846007,0.04055614024,0.2078269124,0.05995058268,0.08890686929,-0.4109977782
4.434999943,-0.0006566005759,-0.0004473211011,-1.504670858,8.102824722e-06,0.0001526501146,-0.000189514205,0.0001170190881,0.001445787377,0.004862059373,0.0002502916032,0.001003051642,-0.001363744494,235.3469391,-235.9009399,235.4183807,-235.8816986,0,0,-1.5,0,0,0,0,0,0,0,0,0,1,0.2383425683,0.07714409381,-9.186131477,-0.009250055999,-0.006490488537,0.002465088852,1.504485846,101252.875,3.5,70,-0.007679221686,0.01349530648,0.1373259425,0.4905664921,0.4984703958,-0.08013914526
4.440000057,-0.0006560201291,-0.0004400958715,-1.504641175,1.552355388e-05,0.0001663513249,-0.0001817305456,7.169457967e-05,0.00140371942,0.005150184501,0.001817888697,0.002557597589,0.001483755186,235.8681488,-235.4074402,236.0744324,-235.3666534,0,0,-1.5,0,0,0,0,0,0,0,0,0,1,0.4085156918,0.234304145,-8.967467308,-0.007684637792,-0.004925931338,0.003777648322,1.504444361,101252.875,3.5,70,-0.00906490162,-0.008413591422,0.05762502551,0.3135194182,0.3109091818,0.5694999099
4.445000172,-0.0006556664594,-0.0004330815573,-1.504609823,2.687811502e-05,0.0001650170598,-0.0001796997822,-2.814429172e-05,0.00136134855,0.005076188594,-0.0002664389613,0.000406531035,0.002270844998,236.1130829,-235.2366333,236.1455994,-235.2257385,0,0,-1.5,0,0,0,0,0,0,0,0,0,1,0.1421767175,-0.01176137011,-9.317093849,-0.00976606831,-0.007090850733,0.001889187493,1.504401922,101252.875,3.5,70,-0.01996777393,-0.008474173956,-0.01479918137,-0.4168655276,-0.4302132726,0.1574179679
4.449999809,-0.0006558119203,-0.0004262790026,-1.50457859,2.630885137e-05,0.0001527967543,-0.0001879691845,-9.852262156e-05,0.001479121856,0.005484092515,-0.002444081707,-0.00165390037,-0.0001135799102,235.8040924,-235.7301941,235.6593933,-235.753006,0,0,-1.5,0,0,0,0,0,0,0,0,0,1,-0.08298906684,-0.2196952552,-9.611199379,-0.01194068417,-0.009164551273,0.0001330018567,1.50435853,101252.875,3.5,70,-0.01407566573,0.02355466038,0.0815807879,-0.4355285168,-0.412086308,-0.4768849909
4.454999924,-0.0006563098868,-0.0004188875901,-1.504544854,2.038989805e-05,0.0001502202649,-0.0001853454305,-7.437383465e-05,0.001683013979,0.006568609737,-0.0005155218532,0.0005245694192,-0.001183870947,235.6451569,-236.0831451,235.6732178,-236.0844727,0,0,-1.5,0,0,0,0,0,0,0,0,0,1,0.2063285559,0.04766789451,-9.235596657,-0.01001480501,-0.006972052157,0.002130222507,1.504314303,101252.875,3.5,70,0.004829757381,0.04077842459,0.2169034481,0.3857119679,0.4356939197,-0.2140582055
4.460000038,-0.0006566880038,-0.0004104774562,-1.504505754,1.740590596e-05,0.0001325004123,-0.0002004336857,-2.852701436e-05,0.001787282992,0.007550013252,-0.003544082167,-0.003017740324,-0.0005963449948,236.0173035,-236.0876007,235.7701263,-236.1094971,0,0,-1.5,0,0,0,0,0,0,0,0,0,1,-0.2872769535,-0.4085445106,-9.885979652,-0.01303915586,-0.01053717453,-0.001517091412,1.504269361,101252.875,3.5,70,0.009169364348,0.02085380256,0.1962807029,-0.6057120562,-0.7084619403,0.1175051928
4.465000153,-0.0006568383542,-0.0004015460436,-1.504461527,8.56427414e-06,0.0001211853378,-0.0002084736043,-8.872663602e-05,0.001803879743,0.007835599594,-0.002263369039,-0.00160821795,-0.001768113347,235.7803802,-236.3687286,235.6426544,-236.3780823,0,0,-1.5,0,0,0,0,0,0,0,0,0,1,-0.09586379677,-0.2316531092,-9.641076088,-0.01176022273,-0.009118574671,-3.496446516e-05,1.504223585,101252.875,3.5,70,-0.01203992404,0.003319350071,0.05711726844,0.2561426163,0.2819044888,-0.2343536764
4.46999979,-0.0006572902203,-0.000392531394,-1.50441587,-1.525675543e-06,0.0001228307519,-0.000203713731,-0.0001396956941,0.00165712391,0.007612618152,0.0003286623396,0.0009517291328,-0.002018105239,235.607254,-236.4276276,235.6846161,-236.4039001,0,0,-1.5,0,0,0,0,0,0,0,0,0,1,0.1790827811,0.02225381322,-9.283923149,-0.009171794169,-0.006542141549,0.002029408934,1.504177213,101252.875,3.5,70,-0.01019381173,-0.02935116738,-0.04459628835,0.5184062719,0.5119894147,-0.04999838024
4.474999905,-0.0006579964538,-0.000384250452,-1.504371405,7.336593626e-07,0.0001204389409,-0.0002041015396,-0.0002097399411,0.001416726853,0.006895846222,-0.0004782702599,-7.750750228e-05,0.0004518765199,236.0486603,-235.8830109,236.0485229,-235.8684692,0,0,-1.5,0,0,0,0,0,0,0,0,0,1,0.01211676747,-0.1321183443,-9.501592636,-0.009977605194,-0.00757800648,0.0008993378142,1.504130363,101252.875,3.5,70,-0.01400884986,-0.04807941243,-0.1433543861,-0.1613865197,-0.2058473229,0.493996352
4.480000019,-0.0006590522244,-0.0003771709744,-1.504330277,1.369492793e-06,0.0001139275992,-0.0002081924176,-0.0003162796202,0.001220000093,0.005950293969,-0.001302241813,-0.0008181594312,0.0001272652298,235.9255524,-235.8383789,235.8570404,-235.8438568,0,0,-1.5,0,0,0,0,0,0,0,0,0,1,-0.0695079118,-0.2074924707,-9.605360031,-0.01080043148,-0.008323428221,0.0004174378701,1.504083037,101252.875,3.5,70,-0.02130793594,-0.03934535384,-0.1891104579,-0.1647943109,-0.1481303871,-0.06492225826
4.485000134,-0.0006606398383,-0.0003710743622,-1.504293561,-5.65659866e-06,0.0001156139988,-0.0002029712778,-0.0003472699318,0.001109036151,0.005436545238,0.0003369878395,0.001044066972,-0.00140533736,235.5093536,-236.0925446,235.5856781,-236.0863037,0,0,-1.5,0,0,0,0,0,0,0,0,0,1,0.1701435894,0.01395959407,-9.288359642,-0.009163480252,-0.006449209061,0.002161617391,1.504035115,101252.875,3.5,70,-0.006198062561,-0.02219278738,-0.10274975,0.3278459311,0.3724452853,-0.3065205216
4.489999771,-0.0006623817026,-0.0003655323235,-1.50425899,-2.361093038e-06,0.0001204858563,-0.0001946468401,-0.0003179678461,0.001021512668,0.005212847609,0.0009745046264,0.001664964366,0.0006589086261,235.8623352,-235.6865082,235.9921112,-235.6725006,0,0,-1.5,0,0,0,0,0,0,0,0,0,1,0.2354734987,0.07428495586,-9.201077461,-0.00852684956,-0.005824313033,0.002636446618,1.503986597,101252.8828,3.5,70,0.00586041715,-0.0175046958,-0.04473952577,0.1275033504,0.1241794825,0.4128491879
4.494999886,-0.0006639765925,-0.00036042789,-1.504225135,4.913944395e-06,0.0001174947247,-0.0001977213251,-0.0003183996014,0.0009740281967,0.004972418305,-0.0008965750458,-0.0003089019738,0.00145504484,236.0816956,-235.5017395,236.0504456,-235.5106354,0,0,-1.5,0,0,0,0,0,0,0,0,0,1,-0.002541500609,-0.145604372,-9.511334419,-0.01039532851,-0.00781089114,0.0009625302046,1.503937364,101252.8828,3.5,70,-8.635106497e-05,-0.009496893734,-0.04808586091,-0.3742159307,-0.3947732449,0.1592272371
4.5,-0.0006655735197,-0.0003555606818,-1.504192114,-1.365444405e-06,0.0001041934374,-0.0002081857965,-0.0003209459537,0.001018481329,0.005004418548,-0.002660506172,-0.00209304248,-0.001255631912,235.6513214,-236.0238037,235.4689789,-236.0555115,0,0,-1.5,0,0,0,0,0,0,0,0,0,1,-0.2041165382,-0.3317878544,-9.773886681,-0.01215680782,-0.009606521577,-0.0005664440687,1.503887534,101252.8828,3.5,70,-0.0005092704669,0.008890626952,0.006400048733,-0.3527862132,-0.3568280935,-0.5421353579
4.505000114,-0.0006671834271,-0.0003504708875,-1.504158378,-7.414962511e-06,0.000112364025,-0.0001970143348,-0.0002766181715,0.001080497168,0.00535835186,0.001481958432,0.002380654681,-0.001210151706,235.5267029,-236.0935211,235.7051697,-236.0781097,0,0,-1.5,0,0,0,0,0,0,0,0,0,1,0.3735375404,0.2019737214,-9.019901276,-0.008020101115,-0.005104013719,0.00361526222,1.50383687,101252.8828,3.5,70,0.00886555668,0.01240316778,0.0707866624,0.8284929395,0.8947395086,0.009096041322
4.510000229,-0.0006685717381,-0.0003450713994,-1.504122496,-6.013501661e-07,0.000112291862,-0.0001947284909,-0.0002275668667,0.001024506404,0.00546478061,-1.416368286e-05,0.0004573214392,0.001362671144,236.1140137,-235.6198578,236.1518707,-235.6105499,0,0,-1.5,0,0,0,0,0,0,0,0,0,1,0.0842012614,-0.06550513208,-9.400005341,-0.00951414369,-0.007039733231,0.001551696565,1.503785372,101252.8828,3.5,70,0.009810261428,-0.01119815279,0.02128574997,-0.2992244065,-0.3846666515,0.5145645738
4.514999866,-0.0006697148783,-0.0003399519483,-1.50408566,5.683439213e-06,0.0001147600851,-0.0001905410609,-0.0002853965852,0.001002794364,0.005199078936,0.0003165345697,0.001014366979,0.001256844029,236.0596313,-235.6141663,236.135498,-235.6101074,0,0,-1.5,0,0,0,0,0,0,0,0,0,1,0.2001753747,0.04177458957,-9.249408722,-0.009183905087,-0.006479100324,0.002483329503,1.503733277,101252.8828,3.5,70,-0.01156594418,-0.004342407919,-0.05314033478,0.06613964587,0.1114091128,-0.0211654231
4.519999981,-0.000671146845,-0.0003349409672,-1.504049778,9.275792763e-06,0.0001244329469,-0.0001762696629,-0.0002971249341,0.001046993071,0.005301384721,0.001934708096,0.002854362829,0.0007181431865,235.9078369,-235.7440643,236.13237,-235.7260895,0,0,-1.5,0,0,0,0,0,0,0,0,0,1,0.4478821754,0.2706926465,-8.92503643,-0.007567980792,-0.004627254792,0.00423272606,1.503680468,101252.8828,3.5,70,-0.002345669782,0.008839741349,0.02046115696,0.3236347139,0.3679991663,-0.1077401713
4.525000095,-0.0006726371939,-0.0003297093208,-1.504012823,2.184234836e-05,0.0001304457837,-0.0001656851236,-0.0002569953213,0.001183603192,0.005953799933,0.001203010208,0.00211722008,0.002513047541,236.3713989,-235.4768982,236.5401001,-235.4667664,0,0,-1.5,0,0,0,0,0,0,0,0,0,1,0.3709386587,0.199639827,-9.026454926,-0.00829866156,-0.005369144958,0.003587524174,1.503627062,101252.8828,3.5,70,0.008025922813,0.02732202411,0.1304830462,-0.1463395804,-0.1474285424,0.3589808643
4.53000021,-0.0006739272503,-0.0003237952187,-1.503972292,3.645268953e-05,0.0001346322533,-0.0001559377561,-0.000240950234,0.001434108592,0.006936497521,0.0008377790218,0.001949854661,0.002921814099,236.5917816,-235.5108795,236.7442474,-235.50914,0,0,-1.5,0,0,0,0,0,0,0,0,0,1,0.403134197,0.2295306176,-8.987876892,-0.008663385175,-0.005537588149,0.003781024134,1.503572941,101252.8828,3.5,70,0.00320901745,0.05010107905,0.1965395212,-0.07304623723,-0.03347308189,0.08175331354
4.534999847,-0.0006751376786,-0.00031662939,-1.503926635,4.340949818e-05,0.0001321629679,-0.0001527237036,-0.0002005689021,0.001787599176,0.008480290882,-0.0004936389159,0.0006429974455,0.001391275087,236.548233,-235.9822845,236.5966339,-235.9937286,0,0,-1.5,0,0,0,0,0,0,0,0,0,1,0.2738144398,0.1101358011,-9.16190815,-0.009992952459,-0.006852861494,0.002670356072,1.503518224,101252.8828,3.5,70,0.008076266386,0.0706981197,0.3087586761,-0.2662836015,-0.2613714337,-0.3061077893
4.539999962,-0.0006761474069,-0.0003076970461,-1.503873229,4.427049134e-05,0.0001111617457,-0.000169337698,-0.0001526137639,0.002205774887,0.01045771874,-0.00420021778,-0.003322776174,0.0001726376358,236.7194519,-236.4401703,236.4496155,-236.485199,0,0,-1.5,0,0,0,0,0,0,0,0,0,1,-0.2044695765,-0.3317321837,-9.794499397,-0.01369437948,-0.01084417477,-0.001047228463,1.50346303,101252.8828,3.5,70,0.009591028094,0.08363514394,0.39548558,-0.7413157821,-0.7931547165,-0.2437274903
4.545000076,-0.0006769198226,-0.0002966740285,-1.503810048,3.961632683e-05,0.0001098455687,-0.0001645353914,-0.0001347089128,0.002576205647,0.01237155218,-0.0002633930126,0.0009603585931,-0.000930939801,236.5719604,-236.9164276,236.6493683,-236.9128265,0,0,-1.5,0,0,0,0,0,0,0,0,0,1,0.3681692779,0.1974404305,-9.056509018,-0.00976302661,-0.006533456501,0.003094085259,1.503407478,101252.8828,3.5,70,0.003580970224,0.07408615202,0.3827666938,0.7873649597,0.8566269875,-0.220715493
4.550000191,-0.0006776040536,-0.0002837998327,-1.503737807,3.787909736e-05,0.0001017336908,-0.0001692611986,-0.0001274640963,0.002709305612,0.01367974654,-0.001622433192,-0.0009451998048,-0.0003473424003,236.9200287,-236.9802551,236.8657532,-236.9737701,0,0,-1.5,0,0,0,0,0,0,0,0,0,1,0.06006813422,-0.08743876964,-9.468914032,-0.01112017781,-0.008451286703,0.0007972490275,1.503351808,101252.8906,3.5,70,0.001448963303,0.02661999315,0.2616388798,-0.2718080282,-0.3811116815,0.1167194769
4.554999828,-0.0006782534765,-0.0002702602942,-1.503659606,3.737497173e-05,8.072272612e-05,-0.0001878309558,-0.0002539973939,0.002751708264,0.01411601435,-0.004202209879,-0.003713960527,-0.0001004470978,237.1531525,-236.992569,236.8740082,-237.0162506,0,0,-1.5,0,0,0,0,0,0,0,0,0,1,-0.282176584,-0.4036450982,-9.923053741,-0.01369636878,-0.01123787835,-0.00168420549,1.503296256,101252.8906,3.5,70,-0.02530665882,0.008480530232,0.08725356311,-0.5159553289,-0.5537521839,0.04937906191
4.559999943,-0.0006795372465,-0.0002565075119,-1.503579855,2.520783164e-05,7.58208771e-05,-0.0001894429297,-0.0003789202892,0.002738395706,0.01425745524,-0.001044970588,-0.0002679800964,-0.002433406655,236.6047211,-237.5002136,236.6006012,-237.4930115,0,0,-1.5,0,0,0,0,0,0,0,0,0,1,0.1502503902,-0.004096935038,-9.361273766,-0.01054351777,-0.007769705728,0.001525823725,1.503241062,101252.8906,3.5,70,-0.02498457953,-0.002662511542,0.02828817815,0.6314479113,0.6891960502,-0.4665919244
4.565000057,-0.000681445701,-0.0002428209846,-1.503500104,1.676536704e-05,6.863629096e-05,-0.000194509892,-0.0004274010425,0.002597369486,0.01422594953,-0.001437237486,-0.001013519359,-0.001688416349,236.7858429,-237.3865204,236.7338409,-237.3755646,0,0,-1.5,0,0,0,0,0,0,0,0,0,1,-0.01409561466,-0.1561410427,-9.577726364,-0.01093523949,-0.008520046249,0.0003093018313,1.503186345,101252.8906,3.5,70,-0.009696150199,-0.02820524387,-0.006301142275,-0.07845337689,-0.1491078585,0.1489980668
4.570000172,-0.0006835967652,-0.0002298390609,-1.503421187,2.092223622e-05,6.825736637e-05,-0.0001919784845,-0.0005470395554,0.00240052538,0.01354712527,-7.562326937e-05,0.0005063374992,0.0008313390426,237.1544037,-236.8543243,237.2218323,-236.8361664,0,0,-1.5,0,0,0,0,0,0,0,0,0,1,0.1810448319,0.02417596243,-9.3236866,-0.009575517848,-0.00699040154,0.001893029432,1.503132224,101252.8906,3.5,70,-0.0239277035,-0.03936882317,-0.1357648522,0.2723228335,0.30397138,0.5039510727
4.574999809,-0.0006863452145,-0.0002178411087,-1.503346324,1.624251308e-05,5.442666588e-05,-0.0002041545231,-0.0006471110391,0.002199919894,0.01273445785,-0.002766320016,-0.002435271395,-0.0009357784875,236.8639832,-237.1063232,236.6931,-237.1217346,0,0,-1.5,0,0,0,0,0,0,0,0,0,1,-0.218649134,-0.3451946974,-9.843594551,-0.01226247475,-0.009950954467,-0.000963548373,1.50307858,101252.8906,3.5,70,-0.02001429722,-0.04012109712,-0.1625334918,-0.5381393433,-0.588321805,-0.353423506
4.579999924,-0.0006895939587,-0.0002068450267,-1.503275871,6.234437933e-06,5.072615022e-05,-0.0002045825386,-0.0007066376857,0.002096146112,0.01223365776,-0.0007405115175,-8.571222861e-05,-0.002001610352,236.5292358,-237.2862854,236.5377655,-237.2881622,0,0,-1.5,0,0,0,0,0,0,0,0,0,1,0.100592792,-0.05015533417,-9.423661232,-0.01023948193,-0.007586264051,0.001342534903,1.503025532,101252.8906,3.5,70,-0.0119053293,-0.02075475641,-0.1001600176,0.4051616788,0.4699118435,-0.213166371
4.585000038,-0.0006931397365,-0.0001963674149,-1.50320828,4.440284101e-06,4.552330574e-05,-0.0002076466917,-0.0006998535246,0.001947226701,0.01181975938,-0.001040642266,-0.0006128500099,-0.0003587997053,236.8320618,-236.9487457,236.8041382,-236.9492035,0,0,-1.5,0,0,0,0,0,0,0,0,0,1,-0.00850812532,-0.1510795951,-9.564751625,-0.0105391955,-0.008116796613,0.0005887874868,1.50297308,101252.8906,3.5,70,0.001356832217,-0.0297838822,-0.08277967572,-0.0600261502,-0.1054275557,0.3285621405
4.590000153,-0.0006966513465,-0.0001866339881,-1.503143191,-1.457056896e-06,2.970175592e-05,-0.0002223934134,-0.0007308496861,0.001789272996,0.01115933713,-0.003164554946,-0.002949397778,-0.001179334009,236.7121429,-237.0403748,236.4925842,-237.065506,0,0,-1.5,0,0,0,0,0,0,0,0,0,1,-0.3098023832,-0.4294858873,-9.957206726,-0.012660156,-0.0104683917,-0.001519442187,1.502920985,101252.8906,3.5,70,-0.006199232303,-0.03159074113,-0.1320844591,-0.4247825742,-0.4673095345,-0.1641068608
4.59499979,-0.0007003179635,-0.000177689275,-1.503081679,-1.391754995e-05,2.557398693e-05,-0.0002244390489,-0.0007739285356,0.001619028742,0.01032971218,-0.0008261082112,-0.000409199798,-0.002492086496,236.2784729,-237.2323608,236.2581177,-237.2360077,0,0,-1.5,0,0,0,0,0,0,0,0,0,1,0.01454601157,-0.1297883987,-9.531229973,-0.01032495964,-0.007911834866,0.0008988017216,1.502869248,101252.8906,3.5,70,-0.008615769446,-0.03404885158,-0.1659249961,0.4676893353,0.5080395937,-0.262550503
4.599999905,-0.0007041990757,-0.0001695953979,-1.503024459,-2.1718055e-05,1.62504075e-05,-0.0002335533936,-0.0007667649188,0.001367866877,0.009412260726,-0.001865066122,-0.001822909573,-0.001560054487,236.4165497,-236.969696,236.2891388,-236.9783173,0,0,-1.5,0,0,0,0,0,0,0,0,0,1,-0.2197781801,-0.3464553058,-9.834238052,-0.01136247348,-0.009334648959,-0.0007627099985,1.502817869,101252.8906,3.5,70,0.001432723366,-0.05023237318,-0.1834902912,-0.2077915668,-0.2827419341,0.1864064038
4.605000019,-0.0007080437499,-0.0001627567399,-1.502971888,-2.533410043e-05,1.957817403e-05,-0.00022893805,-0.0008116987301,0.001090019476,0.008089567535,0.000665384403,0.0009230562719,-0.0007232240168,236.3294525,-236.6877441,236.4185486,-236.6749268,0,0,-1.5,0,0,0,0,0,0,0,0,0,1,0.1347568184,-0.01885744557,-9.367508888,-0.008835540153,-0.006570999045,0.002010242548,1.502766848,101252.8906,3.5,70,-0.008986761793,-0.0555694811,-0.2645386457,0.5060901046,0.5491932034,0.1673660874
4.610000134,-0.0007121113595,-0.0001573073387,-1.502925873,-2.223089723e-05,3.60211925e-05,-0.0002105711319,-0.0008366092225,0.0007798378938,0.006627274211,0.003288745647,0.00367339584,0.0006205687532,236.3205261,-236.2887268,236.6351624,-236.2510986,0,0,-1.5,0,0,0,0,0,0,0,0,0,1,0.463308692,0.284663409,-8.932780266,-0.006215825211,-0.003802947234,0.004536440596,1.502715945,101252.8984,3.5,70,-0.004982098471,-0.06203631684,-0.2924586535,0.5246722698,0.5500679016,0.2687585652
